~VERSION INFORMATION 
VERS  .    2.0                                     :CWLS Log ASCII Standard - VERSION 2.0
WRAP  .    NO                                      :One Line per Depth step
PROD  .    YY.           :LAS Producer
PROG  .    Horizon LASWriter 4.0.9163.3000         :LAS Program name and version
SOURCE.    Run 2-Drilling                          :Run&Pass Information
CREA  .    06/28/2014                              :LAS Creation date {MM/DD/YYYY}
#--------------------------------------------------
~WELL INFORMATION 
#MNEM           .UNIT                      DATA            :DESCRIPTION
#----            ------          --------------            -----------------------------
STRT            .m                   3200.00000            :START DEPTH
STOP            .m                   3716.80000            :STOP DEPTH
STEP            .m                          0.2            :STEP
NULL            .                       -999.25            :NULL VALUE
COMP            .               XX.:COMPANY
WELL            .                     TBG-B3ST2            :WELL NAME
FLD             .                      Tembungo            :FIELD NAME
RIGN            .                Aquamarine Driller        :Rig Name
RIGTYP          .                       Jack-up            :Rig Type
SON             .                     14MDD0152            :Service Order Number
SRVC            .                  YY            :SERVICE COMPANY
DATE            .                    06/24/2014            :LOG DATE(Composite Date for Composite LAP) (MM/DD/YYYY)
CLAB            .                       County:            :County Label
CNTY            .                                          :COUNTY
SLAB            .                        State:            :State/Province Label
STAT            .                         Sabah            :STATE or PROVINCE
PROV            .                         Sabah            :STATE or PROVINCE
CTRY            .                      Malaysia            :COUNTRY
CONT_REGION     .                          Asia            :Continent Region
SECT            .                                          :Section
TOWN            .                                          :Township
RANG            .                                          :Range
API             .                                          :API NUMBER
UWI             .                     14MDD0152            :UNIQUE WELL ID
LUL             .                Port Side, Main Deck      :Logging Unit Location
LUN             .                   OLU-MA-5062            :Logging Unit Number
LOC             .                Offshore Sabah            :FIELD LOCATION
FL1             .                N 730338.480 m            :Field Location Line 1
FL2             .                E 363301.236 m            :Field Location Line 2
LATI            .deg                  6.6062675            :LATITUDE
LONG            .deg                  115.76330            :LONGITUDE
PDAT            .                           MSL            :Local Permanent Datum
LMF             .                            DF            :Logging Measured From
APD             .m                        37.55            :Elevation of Depth Reference (LMF) Above Permanent Datum
EPD             .m                         0.00            :Elevation of Permanent Datum (PDAT) above Mean Sea Level
EKB             .m                      -999.25            :Elevation of Kelly Bushing Above Permanent Datum
EDF             .m                        37.55            :Elevation of Drill Floor Above Permanent Datum
EGL             .m                       -86.26            :Elevation of Ground Level Above Permanent Datum
ECF             .m                      -999.25            :Elevation of Casing Flange above Permanent Datum
#--------------------------------------------------
~CURVE INFORMATION
#MNEM           .UNIT                  API CODE            :DESCRIPTION
#----            ------          --------------            -----------------------------
DEPT            .m                                         :                                                        Depth Index
DEPTH           .m                                         :(RT)    (DnMWorkflow)           (1in)                   Depth Index
TVDE            .m                                         :(RT)    (DnMWorkflow)           (6in)                   True Vertical Depth
ROP5            .m/h                                       :(RT)    (DRILLING_SURFACE)      (6in)                   Rate of penetration averaged over the last 5 ft (1.5 m)
TAB_RES         .h                                         :        (DV6MT)                 (6in)                   Resistivity Time After Bit
GR              .gAPI                                      :(RT)    (PDX5_675)              (6in)                   Gamma Ray
GR              .gAPI                                      :(RM)    (DV6MT)                 (6in)                   Gamma Ray
P16H            .ohm.m                                     :(RM)    (DV6MT)                 (6in)                   Phase Shift Resistivity 16 inch Spacing at 2 MHz, Environmentally Corrected.
P22H            .ohm.m                                     :(RM)    (DV6MT)                 (6in)                   Phase Shift Resistivity 22 inch Spacing at 2 MHz, Environmentally Corrected.
P28H            .ohm.m                                     :(RM)    (DV6MT)                 (6in)                   Phase Shift Resistivity 28 inch Spacing at 2 MHz, Environmentally Corrected.
P34H            .ohm.m                                     :(RM)    (DV6MT)                 (6in)                   Phase Shift Resistivity 34 inch Spacing at 2 MHz, Environmentally Corrected.
P40H            .ohm.m                                     :(RM)    (DV6MT)                 (6in)                   Phase Shift Resistivity 40 inch Spacing at 2 MHz, Environmentally Corrected.
ROBB            .g/cm3                                     :(RM)    (DV6MT)                 (6in)                   Bulk Density, Bottom
DRHB            .g/cm3                                     :(RM)    (DV6MT)                 (6in)                   Bulk Density Correction, Bottom
TNPH            .V/V                                       :(RM)    (DV6MT)                 (6in)                   Thermal Neutron Porosity (Ratio Method) in Selected Lithology
TNPB_UNC        .ft3/ft3                                   :(RM)    (DV6MT)                 (6in)                   Uncorrected Thermal Neutron Porosity, Bottom (only hole size correction applied)
NER1            .1/s                                       :(RM)    (DV6MT)                 (6in)                   Neutron Near Tube 1 Average Count Rate
FAR1            .1/s                                       :(RM)    (DV6MT)                 (6in)                   Neutron Far Tube 1 Average Count Rate
PEB             .                                          :(RM)    (DV6MT)                 (6in)                   Photoelectric Factor, Bottom
RPM             .c/min                                     :(RT)    (DRILLING_SURFACE)      (6in)                   Rotational Speed
ECD             .lbm/gal                                   :(RM)    (DV6MT)                 (6in)                   Equivalent Circulating Density
DHAP            .psi                                       :(RM)    (DV6MT)                 (6in)                   Downhole Annulus Pressure
DHAT            .degC                                      :(RM)    (DV6MT)                 (6in)                   Downhole Annulus Temperature
UCAV            .in                                        :(RM)    (DV6MT)                 (6in)                   Ultrasonic Caliper Average
#-------------------------------------------------------------
#            DEPT        DEPTH         TVDE         ROP5      TAB_RES           GR           GR         P16H         P22H         P28H         P34H         P40H         ROBB         DRHB         TNPH     TNPB_UNC         NER1         FAR1          PEB          RPM          ECD         DHAP         DHAT         UCAV 
#                  (DnMWorkfl)  (DnMWorkfl)  (DRILLING_)      (DV6MT)   (PDX5_675)      (DV6MT)      (DV6MT)      (DV6MT)      (DV6MT)      (DV6MT)      (DV6MT)      (DV6MT)      (DV6MT)      (DV6MT)      (DV6MT)      (DV6MT)      (DV6MT)      (DV6MT)  (DRILLING_)      (DV6MT)      (DV6MT)      (DV6MT)      (DV6MT) 
#                         (RT)         (RT)         (RT)                      (RT)         (RM)         (RM)         (RM)         (RM)         (RM)         (RM)         (RM)         (RM)         (RM)         (RM)         (RM)         (RM)         (RM)         (RT)         (RM)         (RM)         (RM)         (RM) 
#                        (1in)        (6in)        (6in)        (6in)        (6in)        (6in)        (6in)        (6in)        (6in)        (6in)        (6in)        (6in)        (6in)        (6in)        (6in)        (6in)        (6in)        (6in)        (6in)        (6in)        (6in)        (6in)        (6in) 
~ASCII
# ...
       3631.60000   3631.58936   2752.40575     20.77752      0.73404     56.49781     53.02779     12.71187     13.53297     14.35662     15.21334     16.05293      2.43449      0.01740      0.14162      0.13594   4251.27600    104.78800      2.66206    143.00000     10.92652   5122.00046    110.00000      8.72231
       3631.80000   3631.79468   2752.45412     20.76980      0.73446      -999.25     52.72235     12.63122     13.47239     14.29792     15.15189     16.00022      2.41806      0.01648      0.13773      0.12663   4215.97000    106.33110      2.64354    143.00000     10.92582   5120.00039    110.00000      8.72083
       3632.00000   3631.99683   2752.50250     20.78955      0.73460     56.49781     53.92369     12.57857     13.42957     14.25630     15.11765     15.98788      2.41397      0.01721      0.13805      0.13783   4203.42800    106.53790      2.63645    139.00000     10.92444   5118.99963    110.00000      8.72144
       3632.20000   3632.20093   2752.55087     20.76847      0.73474      -999.25     53.39909     12.52932     13.38020     14.20020     15.04916     15.90326      2.42126      0.02095      0.14809      0.15063   4246.47500    101.66710      2.65458    144.00000     10.92913   5122.00046    110.00000      8.72633
       3632.40000   3632.40283   2752.59925     20.76553      0.73585     58.49759     52.35836     12.44165     13.31035     14.15238     15.02850     15.91052      2.42773      0.01864      0.14151      0.13674   4246.80900    106.06170      2.61921    141.00000     10.93134   5122.00046    110.00000      8.72231
       3632.60000   3632.60547   2752.64763     20.78627      0.73711      -999.25     51.50834     12.38512     13.26190     14.09894     14.96979     15.86090      2.41871      0.01560      0.14107      0.13324   4239.06300    106.49290      2.63180    143.00000     10.92327   5118.99963    110.00000      8.72913
       3632.80000   3632.81030   2752.69601     20.76763      0.73807     62.60146     50.41402     12.37023     13.23141     14.06382     14.93919     15.83363      2.42698      0.02298      0.14543      0.14374   4262.38200    102.33360      2.63436    140.00000     10.92737   5122.99977    110.00000      8.72898
       3633.00000   3632.98633   2752.74439     20.77781      0.74000     62.60146     51.87166     12.37037     13.23148     14.07132     14.96342     15.87552      2.42682      0.03696      0.14038      0.13295   4199.77400    105.98060      2.61291    138.00000     10.92709   5124.00053    110.00000      8.72939
       3633.20000   3633.19092   2752.79277     20.77526      0.74085      -999.25     54.94811     12.37912     13.25256     14.10780     15.01872     15.95030      2.41295      0.03760      0.13608      0.13476   4272.22600    108.57900      2.63887    143.00000     10.92953   5122.99977    110.00000      8.73332
       3633.40000   3633.39380   2752.84116     20.78850      0.74224     60.53213     52.85563     12.37787     13.27221     14.14150     15.06360     16.01525      2.40604      0.03456      0.14584      0.14379   4221.96000    105.40480      2.64011    140.00000     10.92832   5126.00060    110.00000      8.73751
       3633.60000   3633.59766   2752.88955     20.78627      0.74474     58.49759     51.12160     12.37434     13.28752     14.16738     15.08743     16.03486      2.38481      0.03096      0.13794      0.13323   4195.63700    107.93430      2.62662    144.00000     10.91844   5118.00032    110.00000      8.73419
       3633.80000   3633.79980   2752.93794     20.75983      0.74611      -999.25     52.29948     12.37720     13.30727     14.20598     15.15213     16.13763      2.37258      0.03089      0.14825      0.14633   4227.06800    104.26070      2.61641    141.00000     10.92788   5122.00046    110.00000      8.73908
       3634.00000   3634.00439   2752.98633     20.78619      0.74738     58.49759     52.58831     12.40363     13.34083     14.25309     15.21902     16.22944      2.37535      0.03317      0.14699      0.15511   4223.82700    103.40750      2.58199    143.00000     10.92803   5126.00060    110.00000      8.72511
       3634.20000   3634.20728   2753.03473     20.76716      0.74933      -999.25     54.04136     12.38716     13.34931     14.27640     15.24578     16.26194      2.38206      0.03691      0.14479      0.15786   4190.98000    103.09180      2.56507    138.00000     10.92190   5116.99955    110.00000      8.72598
       3634.40000   3634.40845   2753.08313     20.78138      0.75279      -999.25     51.92056     12.42617     13.43211     14.39278     15.38062     16.42262      2.38313      0.04436      0.14216      0.13918   4205.25900    104.98040      2.56739    139.00000     10.92516   5120.99970    110.00000      8.71096
       3634.60000   3634.58789   2753.13153     20.78110      0.75446     56.49781     51.78854     12.43128     13.45286     14.44582     15.45744     16.50135      2.37262      0.03872      0.14386      0.13821   4215.15800    107.18640      2.51826    144.00000     10.92775   5126.00060    110.00000      8.72327
       3634.80000   3634.78979   2753.17993     20.78182      0.75598      -999.25     51.88058     12.48291     13.49527     14.49675     15.52881     16.59071      2.38077      0.04633      0.15049      0.15442   4225.34800    104.67360      2.46829    140.00000     10.92807   5114.99948    110.00000      8.71471
       3635.00000   3634.99438   2753.22833     20.78655      0.75918      -999.25     51.38055     12.59968     13.64293     14.66396     15.69705     16.76595      2.40848      0.06256      0.13971      0.14086   4237.79200    107.12380      2.42139    141.00000     10.92244   5114.99948    110.00000      8.72159
       3635.20000   3635.19604   2753.27674     20.75990      0.76057     58.49759     51.59573     12.66194     13.71928     14.75865     15.81099     16.90468      2.43038      0.07568      0.13771      0.13384   4191.18300    107.05140      2.49594    141.00000     10.92352   5122.99977    110.00000      8.71685
       3635.40000   3635.40137   2753.32515     20.78977      0.76210      -999.25     52.47626     12.78668     13.85091     14.90812     15.98787     17.12070      2.44972      0.08489      0.14162      0.13697   4247.48900    104.20210      2.58518    143.00000     10.92029   5118.99963    110.00000      8.70891
       3635.60000   3635.60400   2753.37356     20.78483      0.79668      -999.25     55.20014     12.86620     13.97045     15.05172     16.13258     17.26346      2.45340      0.07516      0.13903      0.14484   4278.08400    106.76170      2.65539    142.00000     10.92319   5122.00046    110.00000      8.72343
       3635.80000   3635.80542   2753.42197     20.77953      0.80321     60.53213     54.14530     12.88332     14.00880     15.10645     16.20101     17.34587      2.44679      0.06368      0.14882      0.14690   4299.45100    103.49700      2.62221    138.00000     10.92476   5122.99977    110.00000      8.71961
       3636.00000   3636.01001   2753.47039     20.77744      0.80849     60.53213     53.22411     12.89784     14.02965     15.13634     16.23841     17.38405      2.44833      0.05701      0.13528      0.11729   4270.01500    109.49990      2.60474    141.00000     10.92126   5118.00032    110.00000      8.72348
       3636.20000   3636.18652   2753.51880     20.76871      0.81918     62.60146     54.09386     12.93878     14.04810     15.15572     16.26713     17.40104      2.45931      0.04256      0.13550      0.11931   4273.08900    107.68520      2.60126    144.00000     10.92020   5122.99977    110.00000      8.72480
       3636.40000   3636.39136   2753.56722     20.78583      0.82460      -999.25     54.91498     12.97871     14.09456     15.20719     16.31984     17.44790      2.46775      0.04291      0.13131      0.11903   4292.32900    108.78860      2.71870    140.00000     10.91818   5120.00039    110.00000      8.72725
       3636.60000   3636.59497   2753.61564     20.80005      0.82807     60.53213     55.33514     13.00241     14.13184     15.25727     16.39187     17.55135      2.47395      0.04237      0.13678      0.12033   4234.89400    105.46560      2.81512    144.00000     10.91910   5114.99948    110.00000      8.73052
