~VERSION INFORMATION 
VERS  .    2.0                                     :CWLS Log ASCII Standard - VERSION 2.0
WRAP  .    NO                                      :One Line per Depth step
PROD  .    YY.           :LAS Producer
PROG  .    Horizon LASWriter 4.0.9163.3000         :LAS Program name and version
SOURCE.    Run 2-Drilling                          :Run&Pass Information
CREA  .    06/28/2014                              :LAS Creation date {MM/DD/YYYY}
#--------------------------------------------------
~WELL INFORMATION 
#MNEM           .UNIT                      DATA            :DESCRIPTION
#----            ------          --------------            -----------------------------
STRT            .m                   3200.00000            :START DEPTH
STOP            .m                   3716.80000            :STOP DEPTH
STEP            .m                          0.2            :STEP
NULL            .                       -999.25            :NULL VALUE
COMP            .               XX.:COMPANY
WELL            .                     TBG-B3ST2            :WELL NAME
FLD             .                      Tembungo            :FIELD NAME
RIGN            .                Aquamarine Driller        :Rig Name
RIGTYP          .                       Jack-up            :Rig Type
SON             .                     14MDD0152            :Service Order Number
SRVC            .                  YY            :SERVICE COMPANY
DATE            .                    06/24/2014            :LOG DATE(Composite Date for Composite LAP) (MM/DD/YYYY)
CLAB            .                       County:            :County Label
CNTY            .                                          :COUNTY
SLAB            .                        State:            :State/Province Label
STAT            .                         Sabah            :STATE or PROVINCE
PROV            .                         Sabah            :STATE or PROVINCE
CTRY            .                      Malaysia            :COUNTRY
CONT_REGION     .                          Asia            :Continent Region
SECT            .                                          :Section
TOWN            .                                          :Township
RANG            .                                          :Range
API             .                                          :API NUMBER
UWI             .                     14MDD0152            :UNIQUE WELL ID
LUL             .                Port Side, Main Deck      :Logging Unit Location
LUN             .                   OLU-MA-5062            :Logging Unit Number
LOC             .                Offshore Sabah            :FIELD LOCATION
FL1             .                N 730338.480 m            :Field Location Line 1
FL2             .                E 363301.236 m            :Field Location Line 2
LATI            .deg                  6.6062675            :LATITUDE
LONG            .deg                  115.76330            :LONGITUDE
PDAT            .                           MSL            :Local Permanent Datum
LMF             .                            DF            :Logging Measured From
APD             .m                        37.55            :Elevation of Depth Reference (LMF) Above Permanent Datum
EPD             .m                         0.00            :Elevation of Permanent Datum (PDAT) above Mean Sea Level
EKB             .m                      -999.25            :Elevation of Kelly Bushing Above Permanent Datum
EDF             .m                        37.55            :Elevation of Drill Floor Above Permanent Datum
EGL             .m                       -86.26            :Elevation of Ground Level Above Permanent Datum
ECF             .m                      -999.25            :Elevation of Casing Flange above Permanent Datum
#--------------------------------------------------
~CURVE INFORMATION
#MNEM           .UNIT                  API CODE            :DESCRIPTION
#----            ------          --------------            -----------------------------
DEPT            .m                                         :                                                        Depth Index
DEPTH           .m                                         :(RT)    (DnMWorkflow)           (1in)                   Depth Index
TVDE            .m                                         :(RT)    (DnMWorkflow)           (6in)                   True Vertical Depth
ROP5            .m/h                                       :(RT)    (DRILLING_SURFACE)      (6in)                   Rate of penetration averaged over the last 5 ft (1.5 m)
TAB_RES         .h                                         :        (DV6MT)                 (6in)                   Resistivity Time After Bit
GR              .gAPI                                      :(RT)    (PDX5_675)              (6in)                   Gamma Ray
GR              .gAPI                                      :(RM)    (DV6MT)                 (6in)                   Gamma Ray
P16H            .ohm.m                                     :(RM)    (DV6MT)                 (6in)                   Phase Shift Resistivity 16 inch Spacing at 2 MHz, Environmentally Corrected.
P22H            .ohm.m                                     :(RM)    (DV6MT)                 (6in)                   Phase Shift Resistivity 22 inch Spacing at 2 MHz, Environmentally Corrected.
P28H            .ohm.m                                     :(RM)    (DV6MT)                 (6in)                   Phase Shift Resistivity 28 inch Spacing at 2 MHz, Environmentally Corrected.
P34H            .ohm.m                                     :(RM)    (DV6MT)                 (6in)                   Phase Shift Resistivity 34 inch Spacing at 2 MHz, Environmentally Corrected.
P40H            .ohm.m                                     :(RM)    (DV6MT)                 (6in)                   Phase Shift Resistivity 40 inch Spacing at 2 MHz, Environmentally Corrected.
ROBB            .g/cm3                                     :(RM)    (DV6MT)                 (6in)                   Bulk Density, Bottom
DRHB            .g/cm3                                     :(RM)    (DV6MT)                 (6in)                   Bulk Density Correction, Bottom
TNPH            .V/V                                       :(RM)    (DV6MT)                 (6in)                   Thermal Neutron Porosity (Ratio Method) in Selected Lithology
TNPB_UNC        .ft3/ft3                                   :(RM)    (DV6MT)                 (6in)                   Uncorrected Thermal Neutron Porosity, Bottom (only hole size correction applied)
NER1            .1/s                                       :(RM)    (DV6MT)                 (6in)                   Neutron Near Tube 1 Average Count Rate
FAR1            .1/s                                       :(RM)    (DV6MT)                 (6in)                   Neutron Far Tube 1 Average Count Rate
PEB             .                                          :(RM)    (DV6MT)                 (6in)                   Photoelectric Factor, Bottom
RPM             .c/min                                     :(RT)    (DRILLING_SURFACE)      (6in)                   Rotational Speed
ECD             .lbm/gal                                   :(RM)    (DV6MT)                 (6in)                   Equivalent Circulating Density
DHAP            .psi                                       :(RM)    (DV6MT)                 (6in)                   Downhole Annulus Pressure
DHAT            .degC                                      :(RM)    (DV6MT)                 (6in)                   Downhole Annulus Temperature
UCAV            .in                                        :(RM)    (DV6MT)                 (6in)                   Ultrasonic Caliper Average
#-------------------------------------------------------------
#            DEPT        DEPTH         TVDE         ROP5      TAB_RES           GR           GR         P16H         P22H         P28H         P34H         P40H         ROBB         DRHB         TNPH     TNPB_UNC         NER1         FAR1          PEB          RPM          ECD         DHAP         DHAT         UCAV 
#                  (DnMWorkfl)  (DnMWorkfl)  (DRILLING_)      (DV6MT)   (PDX5_675)      (DV6MT)      (DV6MT)      (DV6MT)      (DV6MT)      (DV6MT)      (DV6MT)      (DV6MT)      (DV6MT)      (DV6MT)      (DV6MT)      (DV6MT)      (DV6MT)      (DV6MT)  (DRILLING_)      (DV6MT)      (DV6MT)      (DV6MT)      (DV6MT) 
#                         (RT)         (RT)         (RT)                      (RT)         (RM)         (RM)         (RM)         (RM)         (RM)         (RM)         (RM)         (RM)         (RM)         (RM)         (RM)         (RM)         (RM)         (RT)         (RM)         (RM)         (RM)         (RM) 
#                        (1in)        (6in)        (6in)        (6in)        (6in)        (6in)        (6in)        (6in)        (6in)        (6in)        (6in)        (6in)        (6in)        (6in)        (6in)        (6in)        (6in)        (6in)        (6in)        (6in)        (6in)        (6in)        (6in) 
~ASCII
# ...
       3267.60000   3267.60938   2633.52247     26.00800      1.08670      -999.25     43.26817     13.30151     13.62899     13.93996     14.24686     14.53556      2.35371      0.04934      0.13009      0.12297   4184.54500    110.00200      2.52931    142.00000     10.77036   4828.00026     98.00000      8.63976
       3267.80000   3267.81104   2633.59800     25.92947      1.08750     43.47324     43.13857     13.27589     13.64436     13.96573     14.27261     14.57858      2.34402      0.03887      0.12583      0.11758   4165.70800    110.51130      2.49823    137.00000     10.77015   4832.00040     98.00000      8.63737
       3268.00000   3267.98853   2633.67354     26.03905      1.08918     47.02065     42.52161     13.27199     13.63607     13.96383     14.29549     14.63454      2.34467      0.02861      0.12912      0.12261   4149.62400    111.14170      2.36929    137.00000     10.77520   4830.00033     98.00000      8.63756
       3268.20000   3268.19263   2633.74912     26.01834      1.08989      -999.25     41.58618     13.30531     13.65365     13.96827     14.29285     14.62917      2.35833      0.03708      0.12765      0.11344   4133.65500    110.45010      2.39423    137.00000     10.78095   4826.00019     98.00000      8.63951
       3268.40000   3268.39502   2633.82471     26.18728      1.09071      -999.25     43.91484     13.25303     13.62716     13.96206     14.28777     14.61001      2.35272      0.03456      0.12458      0.11234   4146.57600    112.55150      2.47640    141.00000     10.62089   4731.99978     98.00000      8.63829
       3268.60000   3268.59863   2633.90033     26.20719      1.09001      -999.25     43.71384     13.35041     13.66239     13.98218     14.31928     14.63660      2.37536      0.03815      0.12213      0.12429   4095.25800    112.67760      2.41449    137.00000     10.61309   4781.00078     98.00000      8.64440
       3268.80000   3268.80371   2633.97598     26.32517      1.08958      -999.25     43.23945     13.35211     13.68104     13.99669     14.33357     14.67447      2.40025      0.04776      0.12182      0.11344   4140.45600    113.86470      2.39557    142.00000     10.59901   4769.99967     98.00000      8.63421
       3269.00000   3269.00488   2634.05165     26.65907      1.08975     52.60262     42.12484     13.33635     13.67606     14.01043     14.36952     14.72776      2.40786      0.04981      0.12641      0.12078   4112.05900    110.43720      2.40885    141.00000     10.55121   4712.00053     98.00000      8.63808
       3269.20000   3269.20679   2634.12735     26.98817      1.09057      -999.25     42.94354     13.38916     13.72958     14.05062     14.39561     14.75270      2.41752      0.05110      0.12798      0.11965   4171.49200    109.01470      2.41601    142.00000     10.58563   4736.99923     98.00000      8.63544
       3269.40000   3269.41089   2634.20307     27.92178      1.09128     50.70718     43.99939     13.43728     13.78797     14.11375     14.46926     14.84766      2.41877      0.03319      0.12107      0.09970   4233.31600    113.45600      2.46175    138.00000     10.63450   4775.99988     98.00000      8.64563
       3269.60000   3269.59009   2634.27881     28.38833      1.09210      -999.25     43.84679     13.50973     13.83271     14.15247     14.49738     14.84040      2.43105      0.02868      0.11826      0.10812   4138.45900    112.61360      2.53214    142.00000     10.55101   4731.00047     98.00000      8.64644
       3269.80000   3269.79321   2634.35458     28.98767      1.09280      -999.25     43.77019     13.55395     13.88334     14.22270     14.59235     14.95179      2.42971      0.02283      0.11579      0.10991   4153.26700    115.66900      2.61819    140.00000     10.59428   4723.99950     98.00000      8.64542
       3270.00000   3269.99390   2634.43038     29.99057      1.09461      -999.25     41.82935     13.71556     14.01622     14.36076     14.73914     15.07575      2.42610      0.01447      0.12393      0.12287   4158.72700    113.93630      2.71752    140.00000     10.59102   4723.99950     98.00000      8.63951
       3270.20000   3270.20068   2634.50620     30.69196      1.09503     47.02065     41.31181     13.86592     14.13318     14.45342     14.82888     15.17358      2.42268      0.01297      0.12009      0.12667   4180.07100    112.23050      2.68929    137.00000     10.64420   4800.00072     98.00000      8.63511
       3270.40000   3270.40186   2634.58204     31.17291      1.09586      -999.25     42.59748     13.91529     14.21676     14.55319     14.92739     15.26475      2.42855      0.01156      0.12289      0.11278   4161.94900    115.22100      2.65325    141.00000     10.72854   4821.00074     98.00000      8.64293
       3270.60000   3270.60498   2634.65791     31.32064      1.09614      -999.25     45.21857     14.23576     14.47392     14.75987     15.09361     15.39811      2.43169      0.00640      0.10774      0.10319   4161.92100    120.72010      2.65023    141.00000     10.76229   4830.00033     98.00000      8.66128
       3270.80000   3270.80664   2634.73380     31.33513      1.09626      -999.25     44.99305     14.38106     14.58403     14.84268     15.15447     15.44292      2.42220      0.00203      0.11077      0.09697   4162.21900    116.17870      2.66285    137.00000     10.75917   4828.00026     98.00000      8.67693
       3271.00000   3271.01147   2634.80972     31.27142      1.09612     52.60262     43.97435     14.49997     14.65109     14.89809     15.21598     15.49866      2.42589      0.00156      0.10784      0.09920   4183.72500    121.42030      2.71118    141.00000     10.75517   4830.99964     98.00000      8.68751
       3271.20000   3271.19067   2634.88566     30.97673      1.09571      -999.25     42.63564     14.72670     14.86233     15.05888     15.33088     15.60788      2.41835     -0.00207      0.11341      0.10028   4166.47500    115.15450      2.68419    141.00000     10.75714   4824.00012     98.00000      8.67277
       3271.40000   3271.39307   2634.96163     30.86823      1.09572     52.60262     42.93640     14.78351     14.89852     15.12019     15.43173     15.71850      2.40759     -0.00408      0.10841      0.10128   4180.29200    119.00490      2.69490    140.00000     10.75334   4824.00012     98.00000      8.66250
       3271.60000   3271.59692   2635.03762     30.74259      1.09558      -999.25     42.72327     14.89237     14.99589     15.17933     15.46740     15.76577      2.40767     -0.00008      0.11012      0.10545   4183.41100    122.33950      2.77925    137.00000     10.74953   4826.00019     98.00000      8.65296
       3271.80000   3271.80005   2635.11364     30.24868      1.09475      -999.25     43.42731     14.94486     15.09054     15.29169     15.62803     16.02584      2.40431      0.01040      0.10194      0.09091   4240.99300    127.94750      2.86418    142.00000     10.75306   4822.00005     98.00000      8.64734
       3272.00000   3272.00244   2635.18968     29.94030      1.09432     47.02065     42.51182     14.98210     15.11745     15.31096     15.61469     15.95397      2.39686      0.00477      0.10325      0.08451   4217.37000    125.71520      2.85525    141.00000     10.75550   4828.00026     98.00000      8.65663
       3272.20000   3272.20654   2635.26575     29.75701      1.09377      -999.25     41.43602     15.06875     15.19771     15.37748     15.66903     16.00562      2.38603     -0.00511      0.10244      0.08510   4212.04900    128.28770      2.73932    140.00000     10.75436   4822.00005     98.00000      8.65198
       3272.40000   3272.40723   2635.34184     29.43824      1.09308      -999.25     42.31935     15.00092     15.15757     15.37363     15.70831     16.08430      2.38013     -0.00852      0.10507      0.09343   4225.07700    127.39120      2.80294    137.00000     10.74833   4822.99936     98.00000      8.65388
       3272.60000   3272.61084   2635.41796     28.95625      1.09183      -999.25     43.90827     15.03656     15.21462     15.41739     15.71854     16.07183      2.36163     -0.01028      0.11238      0.10138   4182.05500    119.74650      2.84547    138.00000     10.74920   4819.00067     98.00000      8.65235
