~VERSION INFORMATION 
VERS  .    2.0                                     :CWLS Log ASCII Standard - VERSION 2.0
WRAP  .    NO                                      :One Line per Depth step
PROD  .    YY.           :LAS Producer
PROG  .    Horizon LASWriter 4.0.9163.3000         :LAS Program name and version
SOURCE.    Run 2-Drilling                          :Run&Pass Information
CREA  .    06/28/2014                              :LAS Creation date {MM/DD/YYYY}
#--------------------------------------------------
~WELL INFORMATION 
#MNEM           .UNIT                      DATA            :DESCRIPTION
#----            ------          --------------            -----------------------------
STRT            .m                   3200.00000            :START DEPTH
STOP            .m                   3716.80000            :STOP DEPTH
STEP            .m                          0.2            :STEP
NULL            .                       -999.25            :NULL VALUE
COMP            .               XX.:COMPANY
WELL            .                     TBG-B3ST2            :WELL NAME
FLD             .                      Tembungo            :FIELD NAME
RIGN            .                Aquamarine Driller        :Rig Name
RIGTYP          .                       Jack-up            :Rig Type
SON             .                     14MDD0152            :Service Order Number
SRVC            .                  YY            :SERVICE COMPANY
DATE            .                    06/24/2014            :LOG DATE(Composite Date for Composite LAP) (MM/DD/YYYY)
CLAB            .                       County:            :County Label
CNTY            .                                          :COUNTY
SLAB            .                        State:            :State/Province Label
STAT            .                         Sabah            :STATE or PROVINCE
PROV            .                         Sabah            :STATE or PROVINCE
CTRY            .                      Malaysia            :COUNTRY
CONT_REGION     .                          Asia            :Continent Region
SECT            .                                          :Section
TOWN            .                                          :Township
RANG            .                                          :Range
API             .                                          :API NUMBER
UWI             .                     14MDD0152            :UNIQUE WELL ID
LUL             .                Port Side, Main Deck      :Logging Unit Location
LUN             .                   OLU-MA-5062            :Logging Unit Number
LOC             .                Offshore Sabah            :FIELD LOCATION
FL1             .                N 730338.480 m            :Field Location Line 1
FL2             .                E 363301.236 m            :Field Location Line 2
LATI            .deg                  6.6062675            :LATITUDE
LONG            .deg                  115.76330            :LONGITUDE
PDAT            .                           MSL            :Local Permanent Datum
LMF             .                            DF            :Logging Measured From
APD             .m                        37.55            :Elevation of Depth Reference (LMF) Above Permanent Datum
EPD             .m                         0.00            :Elevation of Permanent Datum (PDAT) above Mean Sea Level
EKB             .m                      -999.25            :Elevation of Kelly Bushing Above Permanent Datum
EDF             .m                        37.55            :Elevation of Drill Floor Above Permanent Datum
EGL             .m                       -86.26            :Elevation of Ground Level Above Permanent Datum
ECF             .m                      -999.25            :Elevation of Casing Flange above Permanent Datum
#--------------------------------------------------
~CURVE INFORMATION
#MNEM           .UNIT                  API CODE            :DESCRIPTION
#----            ------          --------------            -----------------------------
DEPT            .m                                         :                                                        Depth Index
DEPTH           .m                                         :(RT)    (DnMWorkflow)           (1in)                   Depth Index
TVDE            .m                                         :(RT)    (DnMWorkflow)           (6in)                   True Vertical Depth
ROP5            .m/h                                       :(RT)    (DRILLING_SURFACE)      (6in)                   Rate of penetration averaged over the last 5 ft (1.5 m)
TAB_RES         .h                                         :        (DV6MT)                 (6in)                   Resistivity Time After Bit
GR              .gAPI                                      :(RT)    (PDX5_675)              (6in)                   Gamma Ray
GR              .gAPI                                      :(RM)    (DV6MT)                 (6in)                   Gamma Ray
P16H            .ohm.m                                     :(RM)    (DV6MT)                 (6in)                   Phase Shift Resistivity 16 inch Spacing at 2 MHz, Environmentally Corrected.
P22H            .ohm.m                                     :(RM)    (DV6MT)                 (6in)                   Phase Shift Resistivity 22 inch Spacing at 2 MHz, Environmentally Corrected.
P28H            .ohm.m                                     :(RM)    (DV6MT)                 (6in)                   Phase Shift Resistivity 28 inch Spacing at 2 MHz, Environmentally Corrected.
P34H            .ohm.m                                     :(RM)    (DV6MT)                 (6in)                   Phase Shift Resistivity 34 inch Spacing at 2 MHz, Environmentally Corrected.
P40H            .ohm.m                                     :(RM)    (DV6MT)                 (6in)                   Phase Shift Resistivity 40 inch Spacing at 2 MHz, Environmentally Corrected.
ROBB            .g/cm3                                     :(RM)    (DV6MT)                 (6in)                   Bulk Density, Bottom
DRHB            .g/cm3                                     :(RM)    (DV6MT)                 (6in)                   Bulk Density Correction, Bottom
TNPH            .V/V                                       :(RM)    (DV6MT)                 (6in)                   Thermal Neutron Porosity (Ratio Method) in Selected Lithology
TNPB_UNC        .ft3/ft3                                   :(RM)    (DV6MT)                 (6in)                   Uncorrected Thermal Neutron Porosity, Bottom (only hole size correction applied)
NER1            .1/s                                       :(RM)    (DV6MT)                 (6in)                   Neutron Near Tube 1 Average Count Rate
FAR1            .1/s                                       :(RM)    (DV6MT)                 (6in)                   Neutron Far Tube 1 Average Count Rate
PEB             .                                          :(RM)    (DV6MT)                 (6in)                   Photoelectric Factor, Bottom
RPM             .c/min                                     :(RT)    (DRILLING_SURFACE)      (6in)                   Rotational Speed
ECD             .lbm/gal                                   :(RM)    (DV6MT)                 (6in)                   Equivalent Circulating Density
DHAP            .psi                                       :(RM)    (DV6MT)                 (6in)                   Downhole Annulus Pressure
DHAT            .degC                                      :(RM)    (DV6MT)                 (6in)                   Downhole Annulus Temperature
UCAV            .in                                        :(RM)    (DV6MT)                 (6in)                   Ultrasonic Caliper Average
#-------------------------------------------------------------
#            DEPT        DEPTH         TVDE         ROP5      TAB_RES           GR           GR         P16H         P22H         P28H         P34H         P40H         ROBB         DRHB         TNPH     TNPB_UNC         NER1         FAR1          PEB          RPM          ECD         DHAP         DHAT         UCAV 
#                  (DnMWorkfl)  (DnMWorkfl)  (DRILLING_)      (DV6MT)   (PDX5_675)      (DV6MT)      (DV6MT)      (DV6MT)      (DV6MT)      (DV6MT)      (DV6MT)      (DV6MT)      (DV6MT)      (DV6MT)      (DV6MT)      (DV6MT)      (DV6MT)      (DV6MT)  (DRILLING_)      (DV6MT)      (DV6MT)      (DV6MT)      (DV6MT) 
#                         (RT)         (RT)         (RT)                      (RT)         (RM)         (RM)         (RM)         (RM)         (RM)         (RM)         (RM)         (RM)         (RM)         (RM)         (RM)         (RM)         (RM)         (RT)         (RM)         (RM)         (RM)         (RM) 
#                        (1in)        (6in)        (6in)        (6in)        (6in)        (6in)        (6in)        (6in)        (6in)        (6in)        (6in)        (6in)        (6in)        (6in)        (6in)        (6in)        (6in)        (6in)        (6in)        (6in)        (6in)        (6in)        (6in) 
~ASCII
# ...
       3434.00000   3434.00244   2695.44234     21.76858      0.80960      -999.25     25.44089     47.62041     48.30415     48.90863     49.38366     49.69657      2.31113      0.02018      0.13387      0.13254   4040.95800    110.19970      2.18917    143.00000     10.83704   4963.99925    105.00000      8.65663
       3434.20000   3434.20874   2695.50630     21.76401      0.81183     33.66567     26.24677     47.19617     48.18786     48.96746     49.42802     49.63425      2.31075      0.02041      0.13931      0.13521   4077.21400    107.42950      2.23407    143.00000     10.83972   4970.00091    105.00000      8.65862
       3434.40000   3434.41138   2695.57026     21.76858      0.81321      -999.25     26.44095     47.08277     47.97507     48.72641     49.25950     49.57547      2.31521      0.02056      0.13839      0.12579   4037.55200    109.87320      2.22557    142.00000     10.83704   4967.99939    105.00000      8.65892
       3434.60000   3434.58911   2695.63422     21.77632      0.81516      -999.25     25.72129     46.55547     47.53080     48.23433     48.68115     48.97932      2.31515      0.02053      0.13556      0.13760   4072.43000    109.94560      2.25457    139.00000     10.84038   4962.99994    105.00000      8.65893
       3434.80000   3434.79126   2695.69818     21.74585      0.81613     30.67472     25.32919     45.70123     46.84986     47.73554     48.34051     48.74258      2.31644      0.01983      0.13869      0.12813   4049.67300    109.16810      2.26080    138.00000     10.84019   4977.00043    105.00000      8.65800
       3435.00000   3434.99438   2695.76213     21.77782      0.82265      -999.25     26.12454     44.99027     46.30569     47.31391     47.96933     48.37587      2.31594      0.02043      0.13766      0.12963   4070.76600    108.75540      2.31978    138.00000     10.84294   4977.99974    105.00000      8.65709
       3435.20000   3435.19727   2695.82609     21.76703      0.83418      -999.25     28.17194     44.47822     45.84570     46.82180     47.43653     47.86247      2.31739      0.02123      0.14229      0.13170   4085.91400    106.00390      2.34894    142.00000     10.84426   4977.00043    105.00000      8.66152
       3435.40000   3435.40210   2695.89004     21.75678      0.83807     35.21332     28.45837     43.97946     45.33450     46.36540     47.08418     47.59892      2.31840      0.02258      0.13917      0.14106   4076.46800    109.33460      2.28258    138.00000     10.84944   4979.99981    105.00000      8.65846
       3435.60000   3435.60474   2695.95399     21.76432      0.83876      -999.25     29.35164     43.66177     44.96311     46.10112     46.90767     47.35816      2.30798      0.01752      0.13717      0.13232   4096.54100    108.80600      2.25931    137.00000     10.84574   4983.99995    105.00000      8.65892
       3435.80000   3435.80737   2696.01794     21.75426      0.84446      -999.25     29.15910     43.01833     44.41471     45.55132     46.42743     47.08200      2.30688      0.01571      0.13291      0.11996   4017.24400    108.83970      2.23927    139.00000     10.84394   4981.99988    105.00000      8.65453
       3436.00000   3436.01001   2696.08188     21.76785      0.84737     38.41295     28.46189     42.81918     44.19130     45.28650     45.98357     46.36120      2.31421      0.02043      0.13717      0.13267   4038.24800    108.05590      2.26229    139.00000     10.84266   4973.00029    105.00000      8.65611
       3436.20000   3436.18799   2696.14583     21.75190      0.85154      -999.25     28.61308     42.68869     43.95427     45.03492     45.80774     46.27061      2.31647      0.02116      0.14439      0.14422   4048.54000    104.67020      2.28494    140.00000     10.84111   4969.00015    105.00000      8.66351
       3436.40000   3436.39014   2696.20977     21.74585      1.78489      -999.25     27.78876     42.36590     43.55061     44.67065     45.55914     46.10637      2.30766      0.02252      0.13744      0.13225   3979.63500    107.37270      2.29677    142.00000     10.83961   4979.99981    105.00000      8.65846
       3436.60000   3436.59351   2696.27371     21.76579      1.78725     35.21332     28.34250     42.40559     43.48344     44.52076     45.31282     45.74710      2.30543      0.01939      0.14609      0.14330   4035.93300    105.60360      2.31211    139.00000     10.83970   4979.00050    105.00000      8.65930
       3436.80000   3436.79834   2696.33764     21.71818      1.79170      -999.25     28.80919     42.23002     43.35251     44.39505     45.15726     45.56074      2.31090      0.02149      0.14223      0.12736   3990.34400    105.11660      2.31214    137.00000     10.84114   4973.99960    105.00000      8.65873
       3437.00000   3436.99951   2696.40158     21.60407      1.79530     35.21332     30.14253     42.29778     43.42085     44.39549     45.14984     45.65804      2.30021      0.01668      0.14560      0.14417   4026.90600    105.48970      2.29966    140.00000     10.84041   4967.00008    105.00000      8.66718
       3437.20000   3437.20313   2696.46551     21.29683      1.79810     36.79575     29.24891     42.03919     43.03719     43.97421     44.71846     45.18119      2.30710      0.02123      0.13828      0.13093   4011.65500    105.74460      2.23156    138.00000     10.83891   4975.99967    105.00000      8.66397
       3437.40000   3437.40674   2696.52944     21.17013      1.79892      -999.25     28.20103     41.83876     42.92607     43.85746     44.60326     45.14536      2.31532      0.02130      0.15371      0.14669   4041.96800    103.38420      2.19131    139.00000     10.83592   4971.99953    105.00000      8.66287
       3437.60000   3437.61060   2696.59337     21.01513      1.79989     35.21332     29.05177     41.77523     42.90765     43.81908     44.54285     45.11266      2.31235      0.01683      0.13311      0.12892   3934.45800    108.77070      2.18550    142.00000     10.83915   4973.00029    105.00000      8.66098
       3437.80000   3437.78760   2696.65730     20.66890      1.80044     35.21332     29.00832     41.27693     42.25873     43.27659     44.15327     44.70762      2.31121      0.02370      0.15754      0.15194   4045.82600     99.77078      2.22844    142.00000     10.81971   4963.99925    105.00000      8.66626
       3438.00000   3437.99097   2696.72123     20.67668      1.80142      -999.25     28.43650     41.20147     42.24261     43.22778     44.12156     44.81102      2.30292      0.02255      0.14054      0.15753   3963.20300    106.24210      2.24568    143.00000     10.80581   4958.00048    105.00000      8.66727
       3438.20000   3438.19458   2696.78515     20.68800      1.80280     35.21332     28.06931     40.75628     41.88638     42.92250     43.90839     44.74883      2.29748      0.01648      0.13586      0.12479   3974.49500    107.09780      2.20368    141.00000     10.81161   4962.99994    105.00000      8.67130
       3438.40000   3438.39771   2696.84907     20.82597      1.80489     32.15281     29.00487     40.06747     41.41745     42.48440     43.33490     44.03571      2.30025      0.01465      0.14455      0.13463   3991.34800    104.01270      2.16587    137.00000     10.82160   4960.99986    105.00000      8.66993
       3438.60000   3438.60278   2696.91299     20.93343      1.80490      -999.25     29.47711     39.70646     41.11330     42.21509     43.15982     44.02164      2.31117      0.01732      0.13672      0.13661   4042.32500    105.60470      2.21158    140.00000     10.82287   4979.99981    105.00000      8.67360
       3438.80000   3438.80518   2696.97691     21.08513      1.80559     40.06493     30.26669     39.29706     40.75861     41.88963     42.84775     43.72664      2.31364      0.01611      0.14487      0.13569   4064.73400    105.91980      2.21815    140.00000     10.82364   4973.99960    105.00000      8.67393
       3439.00000   3439.00806   2697.04082     21.37232      1.80601      -999.25     30.04099     37.97575     39.68071     41.10207     42.33862     43.42035      2.30497      0.01763      0.14381      0.13688   4062.64500    107.62230      2.24276    142.00000     10.81995   4977.00043    105.00000      8.66502
