~VERSION INFORMATION 
VERS  .    2.0                                     :CWLS Log ASCII Standard - VERSION 2.0
WRAP  .    NO                                      :One Line per Depth step
PROD  .    YY.           :LAS Producer
PROG  .    Horizon LASWriter 4.0.9163.3000         :LAS Program name and version
SOURCE.    Run 2-Drilling                          :Run&Pass Information
CREA  .    06/28/2014                              :LAS Creation date {MM/DD/YYYY}
#--------------------------------------------------
~WELL INFORMATION 
#MNEM           .UNIT                      DATA            :DESCRIPTION
#----            ------          --------------            -----------------------------
STRT            .m                   3200.00000            :START DEPTH
STOP            .m                   3716.80000            :STOP DEPTH
STEP            .m                          0.2            :STEP
NULL            .                       -999.25            :NULL VALUE
COMP            .               XX.:COMPANY
WELL            .                     TBG-B3ST2            :WELL NAME
FLD             .                      Tembungo            :FIELD NAME
RIGN            .                Aquamarine Driller        :Rig Name
RIGTYP          .                       Jack-up            :Rig Type
SON             .                     14MDD0152            :Service Order Number
SRVC            .                  YY            :SERVICE COMPANY
DATE            .                    06/24/2014            :LOG DATE(Composite Date for Composite LAP) (MM/DD/YYYY)
CLAB            .                       County:            :County Label
CNTY            .                                          :COUNTY
SLAB            .                        State:            :State/Province Label
STAT            .                         Sabah            :STATE or PROVINCE
PROV            .                         Sabah            :STATE or PROVINCE
CTRY            .                      Malaysia            :COUNTRY
CONT_REGION     .                          Asia            :Continent Region
SECT            .                                          :Section
TOWN            .                                          :Township
RANG            .                                          :Range
API             .                                          :API NUMBER
UWI             .                     14MDD0152            :UNIQUE WELL ID
LUL             .                Port Side, Main Deck      :Logging Unit Location
LUN             .                   OLU-MA-5062            :Logging Unit Number
LOC             .                Offshore Sabah            :FIELD LOCATION
FL1             .                N 730338.480 m            :Field Location Line 1
FL2             .                E 363301.236 m            :Field Location Line 2
LATI            .deg                  6.6062675            :LATITUDE
LONG            .deg                  115.76330            :LONGITUDE
PDAT            .                           MSL            :Local Permanent Datum
LMF             .                            DF            :Logging Measured From
APD             .m                        37.55            :Elevation of Depth Reference (LMF) Above Permanent Datum
EPD             .m                         0.00            :Elevation of Permanent Datum (PDAT) above Mean Sea Level
EKB             .m                      -999.25            :Elevation of Kelly Bushing Above Permanent Datum
EDF             .m                        37.55            :Elevation of Drill Floor Above Permanent Datum
EGL             .m                       -86.26            :Elevation of Ground Level Above Permanent Datum
ECF             .m                      -999.25            :Elevation of Casing Flange above Permanent Datum
#--------------------------------------------------
~CURVE INFORMATION
#MNEM           .UNIT                  API CODE            :DESCRIPTION
#----            ------          --------------            -----------------------------
DEPT            .m                                         :                                                        Depth Index
DEPTH           .m                                         :(RT)    (DnMWorkflow)           (1in)                   Depth Index
TVDE            .m                                         :(RT)    (DnMWorkflow)           (6in)                   True Vertical Depth
ROP5            .m/h                                       :(RT)    (DRILLING_SURFACE)      (6in)                   Rate of penetration averaged over the last 5 ft (1.5 m)
TAB_RES         .h                                         :        (DV6MT)                 (6in)                   Resistivity Time After Bit
GR              .gAPI                                      :(RT)    (PDX5_675)              (6in)                   Gamma Ray
GR              .gAPI                                      :(RM)    (DV6MT)                 (6in)                   Gamma Ray
P16H            .ohm.m                                     :(RM)    (DV6MT)                 (6in)                   Phase Shift Resistivity 16 inch Spacing at 2 MHz, Environmentally Corrected.
P22H            .ohm.m                                     :(RM)    (DV6MT)                 (6in)                   Phase Shift Resistivity 22 inch Spacing at 2 MHz, Environmentally Corrected.
P28H            .ohm.m                                     :(RM)    (DV6MT)                 (6in)                   Phase Shift Resistivity 28 inch Spacing at 2 MHz, Environmentally Corrected.
P34H            .ohm.m                                     :(RM)    (DV6MT)                 (6in)                   Phase Shift Resistivity 34 inch Spacing at 2 MHz, Environmentally Corrected.
P40H            .ohm.m                                     :(RM)    (DV6MT)                 (6in)                   Phase Shift Resistivity 40 inch Spacing at 2 MHz, Environmentally Corrected.
ROBB            .g/cm3                                     :(RM)    (DV6MT)                 (6in)                   Bulk Density, Bottom
DRHB            .g/cm3                                     :(RM)    (DV6MT)                 (6in)                   Bulk Density Correction, Bottom
TNPH            .V/V                                       :(RM)    (DV6MT)                 (6in)                   Thermal Neutron Porosity (Ratio Method) in Selected Lithology
TNPB_UNC        .ft3/ft3                                   :(RM)    (DV6MT)                 (6in)                   Uncorrected Thermal Neutron Porosity, Bottom (only hole size correction applied)
NER1            .1/s                                       :(RM)    (DV6MT)                 (6in)                   Neutron Near Tube 1 Average Count Rate
FAR1            .1/s                                       :(RM)    (DV6MT)                 (6in)                   Neutron Far Tube 1 Average Count Rate
PEB             .                                          :(RM)    (DV6MT)                 (6in)                   Photoelectric Factor, Bottom
RPM             .c/min                                     :(RT)    (DRILLING_SURFACE)      (6in)                   Rotational Speed
ECD             .lbm/gal                                   :(RM)    (DV6MT)                 (6in)                   Equivalent Circulating Density
DHAP            .psi                                       :(RM)    (DV6MT)                 (6in)                   Downhole Annulus Pressure
DHAT            .degC                                      :(RM)    (DV6MT)                 (6in)                   Downhole Annulus Temperature
UCAV            .in                                        :(RM)    (DV6MT)                 (6in)                   Ultrasonic Caliper Average
#-------------------------------------------------------------
#            DEPT        DEPTH         TVDE         ROP5      TAB_RES           GR           GR         P16H         P22H         P28H         P34H         P40H         ROBB         DRHB         TNPH     TNPB_UNC         NER1         FAR1          PEB          RPM          ECD         DHAP         DHAT         UCAV 
#                  (DnMWorkfl)  (DnMWorkfl)  (DRILLING_)      (DV6MT)   (PDX5_675)      (DV6MT)      (DV6MT)      (DV6MT)      (DV6MT)      (DV6MT)      (DV6MT)      (DV6MT)      (DV6MT)      (DV6MT)      (DV6MT)      (DV6MT)      (DV6MT)      (DV6MT)  (DRILLING_)      (DV6MT)      (DV6MT)      (DV6MT)      (DV6MT) 
#                         (RT)         (RT)         (RT)                      (RT)         (RM)         (RM)         (RM)         (RM)         (RM)         (RM)         (RM)         (RM)         (RM)         (RM)         (RM)         (RM)         (RM)         (RT)         (RM)         (RM)         (RM)         (RM) 
#                        (1in)        (6in)        (6in)        (6in)        (6in)        (6in)        (6in)        (6in)        (6in)        (6in)        (6in)        (6in)        (6in)        (6in)        (6in)        (6in)        (6in)        (6in)        (6in)        (6in)        (6in)        (6in)        (6in) 
~ASCII
# ...
       3335.20000   3335.19702   2659.91660     19.77022      1.81128     45.22955     40.77960     19.62631     19.87110     20.32397     21.01201     21.70041      2.31476      0.01814      0.11779      0.09860   4102.42100    116.96740      2.52672    142.00000     10.79768   4885.00009    102.00000      8.66825
       3335.40000   3335.39893   2659.99562     17.48107      1.80170      -999.25     41.01210     19.59614     19.91357     20.35839     20.99416     21.65190      2.32286      0.01985      0.12146      0.11426   4164.55000    113.42270      2.53567    140.00000     10.79812   4895.99975    102.00000      8.67235
       3335.60000   3335.60303   2660.07464     18.17409      1.80531     45.22955     38.70424     19.67030     19.93379     20.38345     21.00585     21.57996      2.33043      0.02038      0.11267      0.11685   4066.92500    119.78390      2.47869    138.00000     10.79752   4886.00085    102.00000      8.66973
       3335.80000   3335.80811   2660.15366     18.78640      1.80861     45.22955     37.11203     19.76048     19.95515     20.38910     20.94490     21.35923      2.33036      0.01497      0.11401      0.11340   4094.93700    117.14550      2.42525    143.00000     10.80546   4884.00078    102.00000      8.65235
       3336.00000   3336.01196   2660.23268     17.65509      1.80489     43.47324     38.52215     20.25217     20.22888     20.53964     21.00346     21.29884      2.33504      0.02024      0.11989      0.12149   4085.48500    114.57500      2.45170    140.00000     10.80750   4897.99982    102.00000      8.65969
       3336.20000   3336.18872   2660.31170     17.99775      1.80684      -999.25     39.66305     20.48908     20.43490     20.70868     21.15253     21.45523      2.33927      0.02244      0.12009      0.12084   4091.20100    115.61120      2.48062    143.00000     10.80573   4898.99913    102.00000      8.66554
       3336.40000   3336.39136   2660.39072     18.37990      1.80906     43.47324     39.02386     20.73020     20.62987     20.85122     21.23145     21.47430      2.34078      0.02389      0.11263      0.11372   4064.98800    116.98030      2.46645    143.00000     10.80480   4898.99913    102.00000      8.66309
       3336.60000   3336.59619   2660.46974     20.06388      1.81238     43.47324     40.09078     21.65325     21.36231     21.35461     21.55234     21.72485      2.37452      0.03388      0.11725      0.11130   4111.03300    117.03550      2.48214    143.00000     10.80683   4895.00044    102.00000      8.66502
       3336.80000   3336.79956   2660.54877     20.71268      1.81392      -999.25     41.33482     21.93706     21.57489     21.52744     21.68596     21.80406      2.39395      0.03119      0.10915      0.09505   4087.11300    122.45800      2.50940    143.00000     10.80785   4895.99975    102.00000      8.65296
       3337.00000   3337.00049   2660.62779     24.39030      1.81544     43.47324     43.45713     22.14932     21.79153     21.73292     21.83832     21.87955      2.38469      0.01696      0.10788      0.10889   4181.22300    119.27730      2.59816    139.00000     10.81003   4893.99968    102.00000      8.66030
       3337.20000   3337.20313   2660.70681     20.71655      0.74335      -999.25     40.88030     22.39083     22.17147     22.09378     22.13138     22.17813      2.36276      0.00727      0.10519      0.09991   4242.42900    124.95800      2.59617    141.00000     10.81533   4895.99975    102.00000      8.65436
       3337.40000   3337.40723   2660.78583     22.22795      0.74293     47.02065     41.13256     22.53408     22.26826     22.18779     22.20735     22.19226      2.35547      0.01046      0.10718      0.09819   4209.25500    123.58300      2.57285    141.00000     10.80939   4899.99989    102.00000      8.65139
       3337.60000   3337.61084   2660.86485     21.91166      0.74250      -999.25     41.63377     22.73826     22.42924     22.29982     22.28721     22.26712      2.34072      0.00474      0.10395      0.10127   4231.14900    125.06890      2.49829    141.00000     10.80610   4889.99954    102.00000      8.65191
       3337.80000   3337.78760   2660.94387     20.64646      0.74264      -999.25     41.43965     23.20838     22.80693     22.62820     22.59954     22.57092      2.31925      0.00172      0.10318      0.09781   4199.56800    128.04870      2.46951    139.00000     10.80819   4897.99982    102.00000      8.65506
       3338.00000   3337.99268   2661.02289     20.08487      0.74223     48.84653     42.00568     23.23688     22.93878     22.77042     22.70017     22.64804      2.32688      0.01306      0.10988      0.10159   4246.51100    124.65380      2.55564    140.00000     10.81221   4889.99954    102.00000      8.65069
       3338.20000   3338.19531   2661.10190     19.65841      0.74293      -999.25     40.86194     23.36504     23.10724     22.92590     22.83029     22.78129      2.31259      0.00542      0.10325      0.09377   4212.22200    125.85280      2.54719    142.00000     10.81573   4898.99913    102.00000      8.65256
       3338.40000   3338.39941   2661.18089     18.45081      0.74113      -999.25     38.74568     23.39018     23.11408     22.92652     22.80019     22.69256      2.28851     -0.00098      0.10546      0.09789   4258.76700    127.67160      2.47917    138.00000     10.80927   4891.00030    102.00000      8.65715
       3338.60000   3338.60156   2661.25986     19.53786      0.74099     47.02065     38.84111     23.55658     23.22594     23.00135     22.85892     22.74720      2.28671      0.00971      0.10673      0.09185   4251.34800    123.45210      2.50504    140.00000     10.81060   4891.99961    102.00000      8.65602
       3338.80000   3338.80322   2661.33882     19.36087      0.74197      -999.25     38.86582     23.69163     23.34608     23.14005     22.99663     22.84168      2.30213      0.02649      0.11058      0.09627   4246.73000    123.65070      2.48482    138.00000     10.80878   4899.99989    102.00000      8.65820
       3339.00000   3339.00757   2661.41776     19.41556      0.74222     47.02065     39.25793     23.77150     23.39678     23.18180     23.04900     22.90887      2.31418      0.03655      0.10738      0.09505   4202.45800    123.54520      2.48325    139.00000     10.81358   4898.99913    102.00000      8.65174
       3339.20000   3339.21069   2661.49668     19.34377      0.74072     45.22955     39.23455     23.83338     23.55285     23.34673     23.21702     23.13165      2.32033      0.02115      0.11312      0.09760   4230.71100    121.13670      2.56653    141.00000     10.81213   4899.99989    102.00000      8.64982
       3339.40000   3339.38989   2661.57558     19.45170      0.74085     47.02065     39.30087     24.05003     23.67311     23.42289     23.27030     23.15201      2.32059      0.00867      0.10823      0.08954   4227.79300    122.10870      2.57278    138.00000     10.81220   4898.99913    102.00000      8.65034
       3339.60000   3339.59204   2661.65447     19.43420      0.74029      -999.25     38.60796     24.20347     23.85667     23.57400     23.39389     23.29999      2.31732      0.00354      0.10984      0.11217   4218.12100    125.71130      2.52479    143.00000     10.82168   4908.00017    102.00000      8.64982
       3339.80000   3339.79492   2661.73334     19.37034      0.73903      -999.25     39.25763     24.52319     24.10571     23.86484     23.71682     23.56413      2.34156      0.02672      0.10986      0.09315   4179.29000    120.20980      2.52842    142.00000     10.81605   4901.99996    102.00000      8.65622
       3340.00000   3339.99951   2661.81219     19.63309      0.73960     48.84653     39.86485     24.61247     24.23547     23.97963     23.81316     23.67905      2.35264      0.03693      0.10464      0.09549   4179.78200    124.01880      2.52911    143.00000     10.82636   4908.99948    102.00000      8.65617
       3340.20000   3340.20093   2661.89103     19.76373      0.73960      -999.25     39.62704     24.85076     24.44400     24.10970     23.92035     23.85599      2.35819      0.03611      0.11284      0.10247   4215.35800    116.67870      2.53064    139.00000     10.81444   4910.00025    102.00000      8.65820
