~VERSION INFORMATION 
VERS  .    2.0                                     :CWLS Log ASCII Standard - VERSION 2.0
WRAP  .    NO                                      :One Line per Depth step
PROD  .    YY.           :LAS Producer
PROG  .    Horizon LASWriter 4.0.9163.3000         :LAS Program name and version
SOURCE.    Run 2-Drilling                          :Run&Pass Information
CREA  .    06/28/2014                              :LAS Creation date {MM/DD/YYYY}
#--------------------------------------------------
~WELL INFORMATION 
#MNEM           .UNIT                      DATA            :DESCRIPTION
#----            ------          --------------            -----------------------------
STRT            .m                   3200.00000            :START DEPTH
STOP            .m                   3716.80000            :STOP DEPTH
STEP            .m                          0.2            :STEP
NULL            .                       -999.25            :NULL VALUE
COMP            .               XX.:COMPANY
WELL            .                     TBG-B3ST2            :WELL NAME
FLD             .                      Tembungo            :FIELD NAME
RIGN            .                Aquamarine Driller        :Rig Name
RIGTYP          .                       Jack-up            :Rig Type
SON             .                     14MDD0152            :Service Order Number
SRVC            .                  YY            :SERVICE COMPANY
DATE            .                    06/24/2014            :LOG DATE(Composite Date for Composite LAP) (MM/DD/YYYY)
CLAB            .                       County:            :County Label
CNTY            .                                          :COUNTY
SLAB            .                        State:            :State/Province Label
STAT            .                         Sabah            :STATE or PROVINCE
PROV            .                         Sabah            :STATE or PROVINCE
CTRY            .                      Malaysia            :COUNTRY
CONT_REGION     .                          Asia            :Continent Region
SECT            .                                          :Section
TOWN            .                                          :Township
RANG            .                                          :Range
API             .                                          :API NUMBER
UWI             .                     14MDD0152            :UNIQUE WELL ID
LUL             .                Port Side, Main Deck      :Logging Unit Location
LUN             .                   OLU-MA-5062            :Logging Unit Number
LOC             .                Offshore Sabah            :FIELD LOCATION
FL1             .                N 730338.480 m            :Field Location Line 1
FL2             .                E 363301.236 m            :Field Location Line 2
LATI            .deg                  6.6062675            :LATITUDE
LONG            .deg                  115.76330            :LONGITUDE
PDAT            .                           MSL            :Local Permanent Datum
LMF             .                            DF            :Logging Measured From
APD             .m                        37.55            :Elevation of Depth Reference (LMF) Above Permanent Datum
EPD             .m                         0.00            :Elevation of Permanent Datum (PDAT) above Mean Sea Level
EKB             .m                      -999.25            :Elevation of Kelly Bushing Above Permanent Datum
EDF             .m                        37.55            :Elevation of Drill Floor Above Permanent Datum
EGL             .m                       -86.26            :Elevation of Ground Level Above Permanent Datum
ECF             .m                      -999.25            :Elevation of Casing Flange above Permanent Datum
#--------------------------------------------------
~CURVE INFORMATION
#MNEM           .UNIT                  API CODE            :DESCRIPTION
#----            ------          --------------            -----------------------------
DEPT            .m                                         :                                                        Depth Index
DEPTH           .m                                         :(RT)    (DnMWorkflow)           (1in)                   Depth Index
TVDE            .m                                         :(RT)    (DnMWorkflow)           (6in)                   True Vertical Depth
ROP5            .m/h                                       :(RT)    (DRILLING_SURFACE)      (6in)                   Rate of penetration averaged over the last 5 ft (1.5 m)
TAB_RES         .h                                         :        (DV6MT)                 (6in)                   Resistivity Time After Bit
GR              .gAPI                                      :(RT)    (PDX5_675)              (6in)                   Gamma Ray
GR              .gAPI                                      :(RM)    (DV6MT)                 (6in)                   Gamma Ray
P16H            .ohm.m                                     :(RM)    (DV6MT)                 (6in)                   Phase Shift Resistivity 16 inch Spacing at 2 MHz, Environmentally Corrected.
P22H            .ohm.m                                     :(RM)    (DV6MT)                 (6in)                   Phase Shift Resistivity 22 inch Spacing at 2 MHz, Environmentally Corrected.
P28H            .ohm.m                                     :(RM)    (DV6MT)                 (6in)                   Phase Shift Resistivity 28 inch Spacing at 2 MHz, Environmentally Corrected.
P34H            .ohm.m                                     :(RM)    (DV6MT)                 (6in)                   Phase Shift Resistivity 34 inch Spacing at 2 MHz, Environmentally Corrected.
P40H            .ohm.m                                     :(RM)    (DV6MT)                 (6in)                   Phase Shift Resistivity 40 inch Spacing at 2 MHz, Environmentally Corrected.
ROBB            .g/cm3                                     :(RM)    (DV6MT)                 (6in)                   Bulk Density, Bottom
DRHB            .g/cm3                                     :(RM)    (DV6MT)                 (6in)                   Bulk Density Correction, Bottom
TNPH            .V/V                                       :(RM)    (DV6MT)                 (6in)                   Thermal Neutron Porosity (Ratio Method) in Selected Lithology
TNPB_UNC        .ft3/ft3                                   :(RM)    (DV6MT)                 (6in)                   Uncorrected Thermal Neutron Porosity, Bottom (only hole size correction applied)
NER1            .1/s                                       :(RM)    (DV6MT)                 (6in)                   Neutron Near Tube 1 Average Count Rate
FAR1            .1/s                                       :(RM)    (DV6MT)                 (6in)                   Neutron Far Tube 1 Average Count Rate
PEB             .                                          :(RM)    (DV6MT)                 (6in)                   Photoelectric Factor, Bottom
RPM             .c/min                                     :(RT)    (DRILLING_SURFACE)      (6in)                   Rotational Speed
ECD             .lbm/gal                                   :(RM)    (DV6MT)                 (6in)                   Equivalent Circulating Density
DHAP            .psi                                       :(RM)    (DV6MT)                 (6in)                   Downhole Annulus Pressure
DHAT            .degC                                      :(RM)    (DV6MT)                 (6in)                   Downhole Annulus Temperature
UCAV            .in                                        :(RM)    (DV6MT)                 (6in)                   Ultrasonic Caliper Average
#-------------------------------------------------------------
#            DEPT        DEPTH         TVDE         ROP5      TAB_RES           GR           GR         P16H         P22H         P28H         P34H         P40H         ROBB         DRHB         TNPH     TNPB_UNC         NER1         FAR1          PEB          RPM          ECD         DHAP         DHAT         UCAV 
#                  (DnMWorkfl)  (DnMWorkfl)  (DRILLING_)      (DV6MT)   (PDX5_675)      (DV6MT)      (DV6MT)      (DV6MT)      (DV6MT)      (DV6MT)      (DV6MT)      (DV6MT)      (DV6MT)      (DV6MT)      (DV6MT)      (DV6MT)      (DV6MT)      (DV6MT)  (DRILLING_)      (DV6MT)      (DV6MT)      (DV6MT)      (DV6MT) 
#                         (RT)         (RT)         (RT)                      (RT)         (RM)         (RM)         (RM)         (RM)         (RM)         (RM)         (RM)         (RM)         (RM)         (RM)         (RM)         (RM)         (RM)         (RT)         (RM)         (RM)         (RM)         (RM) 
#                        (1in)        (6in)        (6in)        (6in)        (6in)        (6in)        (6in)        (6in)        (6in)        (6in)        (6in)        (6in)        (6in)        (6in)        (6in)        (6in)        (6in)        (6in)        (6in)        (6in)        (6in)        (6in)        (6in) 
~ASCII
# ...
       3298.80000   3298.79810   2645.55361     24.78605      1.27155     35.21332     28.20674     44.30005     42.87153     42.02586     41.39204     40.74689      2.22457      0.00325      0.05329      0.05035   4394.54000    193.09990      2.36110    138.00000     10.70962   4840.99999    100.00000      8.63972
       3299.00000   3299.00122   2645.63195     24.76869      1.27210      -999.25     27.87555     44.33162     42.82014     41.92505     41.26070     40.59212      2.22485      0.00636      0.05665      0.05054   4351.54300    179.19350      2.35127    139.00000     10.77273   4860.99925    100.00000      8.63849
       3299.20000   3299.20679   2645.71030     24.77634      1.27210     32.15281     26.22249     44.13866     42.72744     41.90614     41.28135     40.62400      2.21679      0.00426      0.05856      0.05056   4396.65500    186.71600      2.34493    139.00000     10.79185   4859.99994    100.00000      8.63686
       3299.40000   3299.40918   2645.78867     24.73577      1.27182     33.66567     25.45608     44.32738     42.90165     41.94650     41.22548     40.59832      2.21684     -0.00043      0.05820      0.05242   4360.61200    179.68050      2.32674    141.00000     10.79245   4862.99932    100.00000      8.63564
       3299.60000   3299.61230   2645.86705     24.75914      1.27196      -999.25     26.03542     44.28109     42.75940     41.81312     41.11064     40.44866      2.21711     -0.00099      0.05878      0.05639   4384.30000    181.49420      2.30851    140.00000     10.78623   4855.99979    100.00000      8.63421
       3299.80000   3299.79004   2645.94544     24.73482      1.27168     30.67472     25.06860     44.19313     42.68196     41.70953     40.96847     40.28547      2.21672     -0.00092      0.05975      0.05914   4355.29500    181.55100      2.33674    140.00000     10.79568   4867.00091    100.00000      8.63788
       3300.00000   3299.99463   2646.02385     24.67583      1.27142     36.79575     25.80019     44.16945     42.64862     41.61403     40.80997     40.10712      2.22166      0.00486      0.05884      0.05198   4407.38900    186.23260      2.38584    144.00000     10.79615   4860.99925    100.00000      8.64135
       3300.20000   3300.19751   2646.10227     24.38986      1.27045      -999.25     26.41138     43.96329     42.51928     41.57669     40.81532     40.08910      2.22381      0.00562      0.05494      0.04995   4369.32200    186.06410      2.37321    142.00000     10.79680   4864.00008    100.00000      8.63972
       3300.40000   3300.39941   2646.18071     24.13506      1.26918     33.66567     27.25093     43.80331     42.34894     41.41006     40.71666     40.09629      2.23071      0.00643      0.05370      0.05242   4377.14800    186.69050      2.34103    140.00000     10.78915   4862.00001    100.00000      8.64033
       3300.60000   3300.60303   2646.25916     23.91801      1.26807      -999.25     26.37239     43.87683     42.33000     41.38116     40.68862     40.03357      2.22775     -0.00004      0.05888      0.05672   4405.05000    183.56960      2.28047    139.00000     10.79963   4868.00022    100.00000      8.63535
       3300.80000   3300.80737   2646.33762     23.39396      1.26613      -999.25     27.21169     43.77221     42.42810     41.41116     40.63729     40.05751      2.22480     -0.00285      0.05930      0.05757   4368.47700    181.05930      2.27393    144.00000     10.79840   4862.99932    100.00000      8.63686
       3301.00000   3301.00781   2646.41610     23.10151      1.26474     35.21332     27.05910     43.38889     42.08971     41.24057     40.57973     39.96535      2.22650      0.00096      0.05754      0.06110   4344.56900    180.97370      2.31875    144.00000     10.79964   4870.99960    100.00000      8.63829
       3301.20000   3301.21289   2646.49459     22.82052      1.26322      -999.25     26.75400     43.47572     42.11653     41.21581     40.48482     39.79425      2.23174      0.00556      0.05823      0.05723   4398.43400    184.23520      2.30817    144.00000     10.79940   4868.00022    100.00000      8.64461
       3301.40000   3301.38989   2646.57310     22.33216      1.26114      -999.25     24.84448     43.25967     42.03204     41.11542     40.38908     39.80442      2.24755      0.01089      0.05868      0.06091   4407.93400    178.45470      2.36637    139.00000     10.80075   4872.99967    100.00000      8.63890
       3301.60000   3301.59448   2646.65162     22.10650      1.26001      -999.25     24.38701     43.28216     41.84492     40.91957     40.23620     39.62180      2.24875      0.00724      0.06252      0.06363   4417.73200    174.14990      2.35678    139.00000     10.80791   4870.99960    100.00000      8.63707
       3301.80000   3301.79565   2646.73015     22.02288      1.25906     32.15281     24.00604     43.06735     41.84790     41.08387     40.38364     39.61620      2.24945      0.00593      0.06196      0.06715   4410.78600    175.78260      2.34029    143.00000     10.80589   4868.99953    100.00000      8.63707
       3302.00000   3302.00098   2646.80870     21.92037      1.25739     35.21332     24.68828     42.95527     41.74154     40.85340     40.16349     39.60637      2.26776      0.01793      0.06075      0.07080   4349.14200    177.58360      2.37417    144.00000     10.81962   4868.99953    100.00000      8.63756
       3302.20000   3302.20288   2646.88726     21.71120      1.25598      -999.25     26.10153     42.68943     41.52909     40.70927     39.95632     39.21620      2.27782      0.02399      0.06211      0.06239   4312.42900    172.25010      2.40338    144.00000     10.80953   4876.99981    100.00000      8.64114
       3302.40000   3302.40552   2646.96583     21.73666      1.25517     32.15281     26.15205     42.93600     41.69950     40.81351     40.01683     39.25916      2.27866      0.02068      0.06037      0.06060   4316.85500    174.32900      2.38710    142.00000     10.81247   4872.00036    100.00000      8.64538
       3302.60000   3302.60889   2647.04442     21.78499      1.25349      -999.25     27.60599     42.37051     41.28693     40.43068     39.69577     39.08534      2.27885      0.00884      0.06618      0.06746   4295.68400    166.45850      2.44102    144.00000     10.79955   4870.00029    100.00000      8.63780
       3302.80000   3302.78613   2647.12302     21.80486      1.25251      -999.25     29.37418     42.76810     41.27367     40.35777     39.65498     38.96052      2.27854      0.00224      0.06695      0.07376   4306.82700    162.92010      2.44881    142.00000     10.80928   4876.00050    100.00000      8.63560
       3303.00000   3302.98926   2647.20164     21.89246      1.25225     35.21332     29.51122     42.21485     40.99219     40.20911     39.59906     39.01405      2.28498      0.00262      0.06789      0.07561   4252.07900    161.48270      2.44271    143.00000     10.80082   4868.00022    100.00000      8.63972
       3303.20000   3303.19507   2647.28027     21.99017      1.25073     36.79575     25.98419     41.95942     40.69484     39.82203     39.14989     38.57092      2.29865      0.01487      0.06978      0.07399   4297.53500    157.29410      2.46247    138.00000     10.81453   4876.99981    100.00000      8.64074
       3303.40000   3303.39771   2647.35891     21.95967      1.24988     35.21332     28.47166     42.07856     40.58168     39.59185     38.88017     38.28134      2.29883      0.01620      0.07248      0.07975   4274.74300    157.46450      2.39340    139.00000     10.80985   4870.00029    100.00000      8.64734
       3303.60000   3303.59912   2647.43757     21.97896      1.24892      -999.25     28.95948     41.85271     40.35159     39.36243     38.70464     38.19610      2.30265      0.01954      0.07148      0.07614   4315.36000    158.04780      2.38619    139.00000     10.81323   4878.99988    100.00000      8.64685
       3303.80000   3303.80249   2647.51624     22.11071      1.24821     36.79575     30.81989     41.59488     39.87798     38.86118     38.28022     37.82854      2.31421      0.02012      0.07281      0.06559   4297.29700    159.28480      2.38987    141.00000     10.81690   4878.00057    100.00000      8.64049
