~VERSION INFORMATION 
VERS  .    2.0                                     :CWLS Log ASCII Standard - VERSION 2.0
WRAP  .    NO                                      :One Line per Depth step
PROD  .    YY.           :LAS Producer
PROG  .    Horizon LASWriter 4.0.9163.3000         :LAS Program name and version
SOURCE.    Run 2-Drilling                          :Run&Pass Information
CREA  .    06/28/2014                              :LAS Creation date {MM/DD/YYYY}
#--------------------------------------------------
~WELL INFORMATION 
#MNEM           .UNIT                      DATA            :DESCRIPTION
#----            ------          --------------            -----------------------------
STRT            .m                   3200.00000            :START DEPTH
STOP            .m                   3716.80000            :STOP DEPTH
STEP            .m                          0.2            :STEP
NULL            .                       -999.25            :NULL VALUE
COMP            .               XX.:COMPANY
WELL            .                     TBG-B3ST2            :WELL NAME
FLD             .                      Tembungo            :FIELD NAME
RIGN            .                Aquamarine Driller        :Rig Name
RIGTYP          .                       Jack-up            :Rig Type
SON             .                     14MDD0152            :Service Order Number
SRVC            .                  YY            :SERVICE COMPANY
DATE            .                    06/24/2014            :LOG DATE(Composite Date for Composite LAP) (MM/DD/YYYY)
CLAB            .                       County:            :County Label
CNTY            .                                          :COUNTY
SLAB            .                        State:            :State/Province Label
STAT            .                         Sabah            :STATE or PROVINCE
PROV            .                         Sabah            :STATE or PROVINCE
CTRY            .                      Malaysia            :COUNTRY
CONT_REGION     .                          Asia            :Continent Region
SECT            .                                          :Section
TOWN            .                                          :Township
RANG            .                                          :Range
API             .                                          :API NUMBER
UWI             .                     14MDD0152            :UNIQUE WELL ID
LUL             .                Port Side, Main Deck      :Logging Unit Location
LUN             .                   OLU-MA-5062            :Logging Unit Number
LOC             .                Offshore Sabah            :FIELD LOCATION
FL1             .                N 730338.480 m            :Field Location Line 1
FL2             .                E 363301.236 m            :Field Location Line 2
LATI            .deg                  6.6062675            :LATITUDE
LONG            .deg                  115.76330            :LONGITUDE
PDAT            .                           MSL            :Local Permanent Datum
LMF             .                            DF            :Logging Measured From
APD             .m                        37.55            :Elevation of Depth Reference (LMF) Above Permanent Datum
EPD             .m                         0.00            :Elevation of Permanent Datum (PDAT) above Mean Sea Level
EKB             .m                      -999.25            :Elevation of Kelly Bushing Above Permanent Datum
EDF             .m                        37.55            :Elevation of Drill Floor Above Permanent Datum
EGL             .m                       -86.26            :Elevation of Ground Level Above Permanent Datum
ECF             .m                      -999.25            :Elevation of Casing Flange above Permanent Datum
#--------------------------------------------------
~CURVE INFORMATION
#MNEM           .UNIT                  API CODE            :DESCRIPTION
#----            ------          --------------            -----------------------------
DEPT            .m                                         :                                                        Depth Index
DEPTH           .m                                         :(RT)    (DnMWorkflow)           (1in)                   Depth Index
TVDE            .m                                         :(RT)    (DnMWorkflow)           (6in)                   True Vertical Depth
ROP5            .m/h                                       :(RT)    (DRILLING_SURFACE)      (6in)                   Rate of penetration averaged over the last 5 ft (1.5 m)
TAB_RES         .h                                         :        (DV6MT)                 (6in)                   Resistivity Time After Bit
GR              .gAPI                                      :(RT)    (PDX5_675)              (6in)                   Gamma Ray
GR              .gAPI                                      :(RM)    (DV6MT)                 (6in)                   Gamma Ray
P16H            .ohm.m                                     :(RM)    (DV6MT)                 (6in)                   Phase Shift Resistivity 16 inch Spacing at 2 MHz, Environmentally Corrected.
P22H            .ohm.m                                     :(RM)    (DV6MT)                 (6in)                   Phase Shift Resistivity 22 inch Spacing at 2 MHz, Environmentally Corrected.
P28H            .ohm.m                                     :(RM)    (DV6MT)                 (6in)                   Phase Shift Resistivity 28 inch Spacing at 2 MHz, Environmentally Corrected.
P34H            .ohm.m                                     :(RM)    (DV6MT)                 (6in)                   Phase Shift Resistivity 34 inch Spacing at 2 MHz, Environmentally Corrected.
P40H            .ohm.m                                     :(RM)    (DV6MT)                 (6in)                   Phase Shift Resistivity 40 inch Spacing at 2 MHz, Environmentally Corrected.
ROBB            .g/cm3                                     :(RM)    (DV6MT)                 (6in)                   Bulk Density, Bottom
DRHB            .g/cm3                                     :(RM)    (DV6MT)                 (6in)                   Bulk Density Correction, Bottom
TNPH            .V/V                                       :(RM)    (DV6MT)                 (6in)                   Thermal Neutron Porosity (Ratio Method) in Selected Lithology
TNPB_UNC        .ft3/ft3                                   :(RM)    (DV6MT)                 (6in)                   Uncorrected Thermal Neutron Porosity, Bottom (only hole size correction applied)
NER1            .1/s                                       :(RM)    (DV6MT)                 (6in)                   Neutron Near Tube 1 Average Count Rate
FAR1            .1/s                                       :(RM)    (DV6MT)                 (6in)                   Neutron Far Tube 1 Average Count Rate
PEB             .                                          :(RM)    (DV6MT)                 (6in)                   Photoelectric Factor, Bottom
RPM             .c/min                                     :(RT)    (DRILLING_SURFACE)      (6in)                   Rotational Speed
ECD             .lbm/gal                                   :(RM)    (DV6MT)                 (6in)                   Equivalent Circulating Density
DHAP            .psi                                       :(RM)    (DV6MT)                 (6in)                   Downhole Annulus Pressure
DHAT            .degC                                      :(RM)    (DV6MT)                 (6in)                   Downhole Annulus Temperature
UCAV            .in                                        :(RM)    (DV6MT)                 (6in)                   Ultrasonic Caliper Average
#-------------------------------------------------------------
#            DEPT        DEPTH         TVDE         ROP5      TAB_RES           GR           GR         P16H         P22H         P28H         P34H         P40H         ROBB         DRHB         TNPH     TNPB_UNC         NER1         FAR1          PEB          RPM          ECD         DHAP         DHAT         UCAV 
#                  (DnMWorkfl)  (DnMWorkfl)  (DRILLING_)      (DV6MT)   (PDX5_675)      (DV6MT)      (DV6MT)      (DV6MT)      (DV6MT)      (DV6MT)      (DV6MT)      (DV6MT)      (DV6MT)      (DV6MT)      (DV6MT)      (DV6MT)      (DV6MT)      (DV6MT)  (DRILLING_)      (DV6MT)      (DV6MT)      (DV6MT)      (DV6MT) 
#                         (RT)         (RT)         (RT)                      (RT)         (RM)         (RM)         (RM)         (RM)         (RM)         (RM)         (RM)         (RM)         (RM)         (RM)         (RM)         (RM)         (RM)         (RT)         (RM)         (RM)         (RM)         (RM) 
#                        (1in)        (6in)        (6in)        (6in)        (6in)        (6in)        (6in)        (6in)        (6in)        (6in)        (6in)        (6in)        (6in)        (6in)        (6in)        (6in)        (6in)        (6in)        (6in)        (6in)        (6in)        (6in)        (6in) 
~ASCII
# ...
       3532.80000   3532.81128   2726.60149     19.86776      1.40531      -999.25     39.22027     22.57632     24.06754     25.42071     26.66177     27.79354      2.38360      0.03551      0.14163      0.13654   4103.24600    107.49420      2.46056    138.00000     10.81723   5021.00053    107.00000      8.68598
       3533.00000   3532.98682   2726.66048     19.86586      1.40447     41.75169     39.01639     22.59612     24.07649     25.39466     26.62032     27.78265      2.37257      0.02880      0.13735      0.12633   4140.09400    108.27940      2.41277    140.00000     10.81545   5023.99991    107.00000      8.68904
       3533.20000   3533.19141   2726.71944     19.75035      1.40225      -999.25     38.18409     22.14066     23.72503     25.17350     26.52893     27.79662      2.36023      0.01578      0.13717      0.12780   4116.18500    107.76290      2.36545    142.00000     10.81546   5015.00032    107.00000      8.69227
       3533.40000   3533.39404   2726.77837     19.64659      1.40850     41.75169     38.36369     22.06346     23.67142     25.08727     26.37115     27.58553      2.35889      0.01865      0.14555      0.12994   4185.46900    105.54520      2.38102    140.00000     10.81457   5027.00074    107.00000      8.68944
       3533.60000   3533.59692   2726.83728     19.45532      1.41546      -999.25     38.99680     22.03767     23.56860     24.96112     26.23486     27.39712      2.36094      0.02372      0.14667      0.13644   4129.03400    106.44210      2.37066    137.00000     10.81818   5021.00053    107.00000      8.69291
       3533.80000   3533.80029   2726.89617     18.82726      1.46600     45.22955     39.75741     21.98507     23.42261     24.79513     26.12001     27.33376      2.38034      0.03305      0.13688      0.13389   4104.00200    108.44630      2.33598    139.00000     10.82050   5028.00005    107.00000      8.68965
       3534.00000   3534.00244   2726.95502     18.59073      1.47268     47.37713     39.71231     21.96214     23.42559     24.82041     26.12892     27.28828      2.39219      0.03728      0.13652      0.12491   4161.88400    108.49440      2.31273    142.00000     10.81458   5017.99970    107.00000      8.69026
       3534.20000   3534.20679   2727.01385     18.37682      1.47155      -999.25     38.33912     21.94444     23.39556     24.80078     26.15318     27.36847      2.39844      0.03805      0.13914      0.12028   4153.46700    105.57050      2.30458    141.00000     10.82148   5023.00060    107.00000      8.68650
       3534.40000   3534.41138   2727.07265     18.06349      1.46878     45.22955     37.53231     21.81489     23.32633     24.71255     26.01582     27.23458      2.42549      0.04800      0.13700      0.12187   4179.31500    107.58290      2.38631    139.00000     10.81728   5032.99950    107.00000      8.69474
       3534.60000   3534.58765   2727.13143     17.91303      1.46725      -999.25     39.48772     21.70815     23.19838     24.55863     25.84316     27.05725      2.43453      0.05175      0.13670      0.12563   4192.69100    108.26240      2.42379    142.00000     10.81817   5021.99984    107.00000      8.68754
       3534.80000   3534.79150   2727.19018     17.77571      1.46586     45.22955     39.69217     21.69769     23.12433     24.48040     25.79825     27.02390      2.43130      0.04431      0.13451      0.10631   4207.92300    109.24980      2.46272    138.00000     10.82265   5021.99984    107.00000      8.68755
       3535.00000   3534.99414   2727.24890     17.58462      1.46296     47.02065     39.14522     21.50277     22.91998     24.24667     25.49452     26.62956      2.43569      0.02606      0.13405      0.12155   4242.51100    108.84380      2.55079    142.00000     10.81948   5030.00012    107.00000      8.68316
       3535.20000   3535.19580   2727.30760     17.50691      1.46128      -999.25     38.99262     21.33854     22.64876     23.95356     25.30737     26.60005      2.43746      0.02075      0.14145      0.12759   4229.91600    104.72140      2.59007    137.00000     10.82320   5023.99991    107.00000      8.68351
       3535.40000   3535.40015   2727.36627     17.48653      1.46004     47.03804     40.54137     21.13201     22.46033     23.72607     25.02636     26.31246      2.43414      0.01326      0.13738      0.12827   4201.27900    105.06250      2.63320    138.00000     10.82339   5025.00067    107.00000      8.68883
       3535.60000   3535.60474   2727.42491     17.49003      1.45891      -999.25     41.19422     20.80886     22.18380     23.48693     24.82311     26.15652      2.43188      0.00939      0.13456      0.11873   4174.10600    109.18660      2.65596    139.00000     10.82357   5028.00005    107.00000      8.69768
       3535.80000   3535.80811   2727.48353     17.45188      1.45613      -999.25     40.07818     20.28456     21.65483     22.94062     24.28847     25.68596      2.43240      0.00515      0.13487      0.11762   4139.34300    106.64240      2.55658    141.00000     10.82629   5028.00005    107.00000      8.72319
       3536.00000   3536.00708   2727.54212     16.54757      1.45016     48.84653     39.54618     20.05832     21.40865     22.67286     23.96794     25.28149      2.43187      0.00491      0.14385      0.13607   4121.37000    102.77910      2.54536    139.00000     10.82160   5025.99998    107.00000      8.75650
       3536.20000   3536.18848   2727.60068     16.12805      1.44614     45.22955     37.86433     19.93758     21.24403     22.53395     23.91014     25.29145      2.42301      0.00517      0.14102      0.13106   4054.04800    102.59770      2.54321    142.00000     10.82593   5027.00074    108.00000      8.72720
       3536.40000   3536.39063   2727.65922      7.79599      1.34281     52.60262     39.90099     19.63939     20.87998     22.15165     23.49895     24.78099      2.40721      0.01463      0.14577      0.13096   4094.53600    100.75360      2.54633    138.00000     10.60994   4908.99948    108.00000      8.76954
       3536.60000   3536.59619   2727.71773      7.80088      1.34185      -999.25     39.80191     19.44135     20.68354     21.95868     23.32902     24.65004      2.39701      0.01498      0.14311      0.13618   4097.95000    103.92650      2.54458    139.00000     10.65144   5013.99956    108.00000      8.70344
       3536.80000   3536.79883   2727.77621      7.88367      1.34308      -999.25     39.21301     19.20732     20.53490     21.79258     23.09262     24.39179      2.39114      0.01211      0.13802      0.13176   4153.17800    107.64370      2.50217    139.00000     10.81735   5027.00074    107.00000      8.69733
       3537.00000   3537.00171   2727.83465      8.01397      1.34475     54.53283     38.65980     18.96319     20.23126     21.46194     22.76400     24.05761      2.38857      0.01742      0.14014      0.12851   4122.23800    105.64560      2.52376    137.00000     10.82303   5023.00060    107.00000      8.70834
       3537.20000   3537.20361   2727.89307      7.94176      1.34238      -999.25     39.25961     18.82633     20.11623     21.34410     22.62508     23.90139      2.39006      0.01976      0.13498      0.13126   4085.37400    108.47130      2.49598    138.00000     10.82623   5034.99957    107.00000      8.71696
       3537.40000   3537.40771   2727.95145      7.96791      1.35099     47.02065     38.14124     18.80046     20.06078     21.28959     22.60492     23.91957      2.38883      0.02150      0.15060      0.13362   4174.08000    103.34990      2.44146    137.00000     10.82288   5017.99970    107.00000      8.70205
       3537.60000   3537.61060   2728.00980      7.73671      0.93114      -999.25     39.91003     18.48863     19.81089     21.06214     22.38370     23.74494      2.37531      0.01017      0.13470      0.13745   4143.40800    108.97500      2.38637    143.00000     10.83123   5028.00005    107.00000      8.69882
       3537.80000   3537.78931   2728.06812     16.51690      0.93044      -999.25     41.43486     18.33888     19.70768     20.99826     22.32850     23.68040      2.37472      0.01109      0.14488      0.13355   4160.89200    105.96890      2.39693    142.00000     10.83274   5034.99957    107.00000      8.68873
