~VERSION INFORMATION 
VERS  .    2.0                                     :CWLS Log ASCII Standard - VERSION 2.0
WRAP  .    NO                                      :One Line per Depth step
PROD  .    YY.           :LAS Producer
PROG  .    Horizon LASWriter 4.0.9163.3000         :LAS Program name and version
SOURCE.    Run 2-Drilling                          :Run&Pass Information
CREA  .    06/28/2014                              :LAS Creation date {MM/DD/YYYY}
#--------------------------------------------------
~WELL INFORMATION 
#MNEM           .UNIT                      DATA            :DESCRIPTION
#----            ------          --------------            -----------------------------
STRT            .m                   3200.00000            :START DEPTH
STOP            .m                   3716.80000            :STOP DEPTH
STEP            .m                          0.2            :STEP
NULL            .                       -999.25            :NULL VALUE
COMP            .               XX.:COMPANY
WELL            .                     TBG-B3ST2            :WELL NAME
FLD             .                      Tembungo            :FIELD NAME
RIGN            .                Aquamarine Driller        :Rig Name
RIGTYP          .                       Jack-up            :Rig Type
SON             .                     14MDD0152            :Service Order Number
SRVC            .                  YY            :SERVICE COMPANY
DATE            .                    06/24/2014            :LOG DATE(Composite Date for Composite LAP) (MM/DD/YYYY)
CLAB            .                       County:            :County Label
CNTY            .                                          :COUNTY
SLAB            .                        State:            :State/Province Label
STAT            .                         Sabah            :STATE or PROVINCE
PROV            .                         Sabah            :STATE or PROVINCE
CTRY            .                      Malaysia            :COUNTRY
CONT_REGION     .                          Asia            :Continent Region
SECT            .                                          :Section
TOWN            .                                          :Township
RANG            .                                          :Range
API             .                                          :API NUMBER
UWI             .                     14MDD0152            :UNIQUE WELL ID
LUL             .                Port Side, Main Deck      :Logging Unit Location
LUN             .                   OLU-MA-5062            :Logging Unit Number
LOC             .                Offshore Sabah            :FIELD LOCATION
FL1             .                N 730338.480 m            :Field Location Line 1
FL2             .                E 363301.236 m            :Field Location Line 2
LATI            .deg                  6.6062675            :LATITUDE
LONG            .deg                  115.76330            :LONGITUDE
PDAT            .                           MSL            :Local Permanent Datum
LMF             .                            DF            :Logging Measured From
APD             .m                        37.55            :Elevation of Depth Reference (LMF) Above Permanent Datum
EPD             .m                         0.00            :Elevation of Permanent Datum (PDAT) above Mean Sea Level
EKB             .m                      -999.25            :Elevation of Kelly Bushing Above Permanent Datum
EDF             .m                        37.55            :Elevation of Drill Floor Above Permanent Datum
EGL             .m                       -86.26            :Elevation of Ground Level Above Permanent Datum
ECF             .m                      -999.25            :Elevation of Casing Flange above Permanent Datum
#--------------------------------------------------
~CURVE INFORMATION
#MNEM           .UNIT                  API CODE            :DESCRIPTION
#----            ------          --------------            -----------------------------
DEPT            .m                                         :                                                        Depth Index
DEPTH           .m                                         :(RT)    (DnMWorkflow)           (1in)                   Depth Index
TVDE            .m                                         :(RT)    (DnMWorkflow)           (6in)                   True Vertical Depth
ROP5            .m/h                                       :(RT)    (DRILLING_SURFACE)      (6in)                   Rate of penetration averaged over the last 5 ft (1.5 m)
TAB_RES         .h                                         :        (DV6MT)                 (6in)                   Resistivity Time After Bit
GR              .gAPI                                      :(RT)    (PDX5_675)              (6in)                   Gamma Ray
GR              .gAPI                                      :(RM)    (DV6MT)                 (6in)                   Gamma Ray
P16H            .ohm.m                                     :(RM)    (DV6MT)                 (6in)                   Phase Shift Resistivity 16 inch Spacing at 2 MHz, Environmentally Corrected.
P22H            .ohm.m                                     :(RM)    (DV6MT)                 (6in)                   Phase Shift Resistivity 22 inch Spacing at 2 MHz, Environmentally Corrected.
P28H            .ohm.m                                     :(RM)    (DV6MT)                 (6in)                   Phase Shift Resistivity 28 inch Spacing at 2 MHz, Environmentally Corrected.
P34H            .ohm.m                                     :(RM)    (DV6MT)                 (6in)                   Phase Shift Resistivity 34 inch Spacing at 2 MHz, Environmentally Corrected.
P40H            .ohm.m                                     :(RM)    (DV6MT)                 (6in)                   Phase Shift Resistivity 40 inch Spacing at 2 MHz, Environmentally Corrected.
ROBB            .g/cm3                                     :(RM)    (DV6MT)                 (6in)                   Bulk Density, Bottom
DRHB            .g/cm3                                     :(RM)    (DV6MT)                 (6in)                   Bulk Density Correction, Bottom
TNPH            .V/V                                       :(RM)    (DV6MT)                 (6in)                   Thermal Neutron Porosity (Ratio Method) in Selected Lithology
TNPB_UNC        .ft3/ft3                                   :(RM)    (DV6MT)                 (6in)                   Uncorrected Thermal Neutron Porosity, Bottom (only hole size correction applied)
NER1            .1/s                                       :(RM)    (DV6MT)                 (6in)                   Neutron Near Tube 1 Average Count Rate
FAR1            .1/s                                       :(RM)    (DV6MT)                 (6in)                   Neutron Far Tube 1 Average Count Rate
PEB             .                                          :(RM)    (DV6MT)                 (6in)                   Photoelectric Factor, Bottom
RPM             .c/min                                     :(RT)    (DRILLING_SURFACE)      (6in)                   Rotational Speed
ECD             .lbm/gal                                   :(RM)    (DV6MT)                 (6in)                   Equivalent Circulating Density
DHAP            .psi                                       :(RM)    (DV6MT)                 (6in)                   Downhole Annulus Pressure
DHAT            .degC                                      :(RM)    (DV6MT)                 (6in)                   Downhole Annulus Temperature
UCAV            .in                                        :(RM)    (DV6MT)                 (6in)                   Ultrasonic Caliper Average
#-------------------------------------------------------------
#            DEPT        DEPTH         TVDE         ROP5      TAB_RES           GR           GR         P16H         P22H         P28H         P34H         P40H         ROBB         DRHB         TNPH     TNPB_UNC         NER1         FAR1          PEB          RPM          ECD         DHAP         DHAT         UCAV 
#                  (DnMWorkfl)  (DnMWorkfl)  (DRILLING_)      (DV6MT)   (PDX5_675)      (DV6MT)      (DV6MT)      (DV6MT)      (DV6MT)      (DV6MT)      (DV6MT)      (DV6MT)      (DV6MT)      (DV6MT)      (DV6MT)      (DV6MT)      (DV6MT)      (DV6MT)  (DRILLING_)      (DV6MT)      (DV6MT)      (DV6MT)      (DV6MT) 
#                         (RT)         (RT)         (RT)                      (RT)         (RM)         (RM)         (RM)         (RM)         (RM)         (RM)         (RM)         (RM)         (RM)         (RM)         (RM)         (RM)         (RM)         (RT)         (RM)         (RM)         (RM)         (RM) 
#                        (1in)        (6in)        (6in)        (6in)        (6in)        (6in)        (6in)        (6in)        (6in)        (6in)        (6in)        (6in)        (6in)        (6in)        (6in)        (6in)        (6in)        (6in)        (6in)        (6in)        (6in)        (6in)        (6in) 
~ASCII
# ...
       3564.00000   3564.00049   2735.43353     17.69965      1.32767     54.56760     44.68576     15.30011     16.15669     17.02118     17.91189     18.76285      2.39486      0.02899      0.15785      0.14795   4092.47600     98.16824      2.56448    143.00000     10.79389   5032.99950    108.00000      8.70636
       3564.20000   3564.20435   2735.48765     17.70980      1.32656      -999.25     44.94622     15.27114     16.10429     16.93961     17.82200     18.69459      2.38680      0.02234      0.14725      0.14425   4106.50000    101.97460      2.55562    143.00000     10.80123   5025.99998    108.00000      8.70415
       3564.40000   3564.40771   2735.54175     17.68389      1.32558      -999.25     45.83494     15.25175     16.07378     16.89490     17.76292     18.62444      2.37712      0.01975      0.15807      0.16540   4109.23500     96.79091      2.53650    141.00000     10.79816   5032.99950    108.00000      8.72825
       3564.60000   3564.60986   2735.59581     17.43778      1.32282     48.84653     45.48840     15.12573     15.94227     16.74396     17.58965     18.44168      2.37851      0.02191      0.15245      0.15443   4069.57000     99.22301      2.52360    141.00000     10.79784   5023.99991    108.00000      8.75262
       3564.80000   3564.78784   2735.64984     15.79339      1.31251      -999.25     45.31703     14.95068     15.79714     16.59654     17.43506     18.30904      2.37074      0.01955      0.14292      0.13585   4086.00200    101.56500      2.50826    138.00000     10.80349   5036.99964    108.00000      8.73384
       3565.00000   3564.99121   2735.70384     14.99926      1.30654     48.84653     45.42660     14.91926     15.71746     16.50905     17.36237     18.23212      2.36796      0.01528      0.15155      0.13323   4073.34400     98.20350      2.47432    142.00000     10.79971   5027.00074    108.00000      8.74170
       3565.20000   3565.19629   2735.75780     14.76280      1.30323     56.49781     45.32271     14.78374     15.58276     16.38789     17.22473     18.02679      2.38376      0.02384      0.14815      0.14490   4032.57300    100.28570      2.48028    143.00000     10.80394   5032.00019    108.00000      8.81176
       3565.40000   3565.39722   2735.81174     14.66760      1.30197      -999.25     45.75493     14.76316     15.54698     16.33279     17.14564     17.92251      2.38439      0.02432      0.15585      0.14032   4086.86800     98.07609      2.48416    138.00000     10.80376   5036.99964    108.00000      8.74869
       3565.60000   3565.60107   2735.86565     14.20097      1.30058     48.84653     45.49216     14.75034     15.50440     16.26598     17.06997     17.84911      2.38968      0.02503      0.15527      0.15329   4062.63300     97.90274      2.44571    138.00000     10.80550   5030.99943    108.00000      8.73716
       3565.80000   3565.80322   2735.91953     14.09919      1.31473     56.49781     45.39956     14.79546     15.54309     16.28603     17.05809     17.80498      2.40229      0.03595      0.15557      0.14842   4060.24000     97.19509      2.42726    143.00000     10.79991   5028.00005    108.00000      8.80704
       3566.00000   3566.00854   2735.97338     13.85072      1.31961      -999.25     44.78797     14.75899     15.52608     16.27253     17.02754     17.75057      2.41770      0.05492      0.14308      0.13463   4050.87300    101.18980      2.50383    142.00000     10.79571   5028.99936    108.00000      8.84067
       3566.20000   3566.21069   2736.02720     13.74566      1.32419     52.60262     44.50455     14.75923     15.51011     16.23931     16.99011     17.72456      2.43306      0.07207      0.14634      0.14007   4060.14100    100.95350      2.54504    140.00000     10.80358   5028.99936    108.00000      8.77734
       3566.40000   3566.38721   2736.08099     13.01791      0.84196     54.53283     48.07043     14.76110     15.50702     16.22919     16.98228     17.73156      2.42307      0.05607      0.14359      0.12824   4106.24200    103.26640      2.48650    139.00000     10.80883   5042.99985    108.00000      8.74153
       3566.60000   3566.59131   2736.13476     13.32972      0.84972     50.70718     49.00786     14.75264     15.50393     16.23077     16.98353     17.72748      2.41865      0.04285      0.14838      0.14197   4101.31900    100.48690      2.44571    138.00000     10.80369   5042.00054    108.00000      8.74345
       3566.80000   3566.79614   2736.18849      9.42316      0.80918      -999.25     48.92078     14.70843     15.49316     16.22396     16.97321     17.73538      2.42657      0.04435      0.14743      0.13380   4095.79200    100.11000      2.43188    139.00000     10.80599   5027.00074    108.00000      8.75935
       3567.00000   3566.99878   2736.24220      9.75968      0.82405     50.70718     47.01450     14.64585     15.44017     16.17483     16.92532     17.69034      2.43591      0.07048      0.14769      0.14848   4115.03300    100.91710      2.53263    139.00000     10.81087   5032.99950    108.00000      8.70354
       3567.20000   3567.20215   2736.29588      9.97437      0.83153      -999.25     46.62279     14.62104     15.40581     16.14582     16.90897     17.67831      2.43005      0.06841      0.14810      0.14226   4116.92900     99.58807      2.53642    137.00000     10.81317   5038.00040    108.00000      8.70214
       3567.40000   3567.40576   2736.34953      9.92283      0.83918     58.49759     46.60011     14.61943     15.39812     16.13619     16.89922     17.66602      2.41215      0.04958      0.15147      0.13558   4137.38500    100.58100      2.48889    142.00000     10.81208   5038.99971    108.00000      8.69646
       3567.60000   3567.60693   2736.40315     10.12028      0.84708     52.60262     47.45013     14.55063     15.36653     16.13541     16.91192     17.67810      2.39830      0.03120      0.15011      0.14120   4173.88100    101.60570      2.45206    142.00000     10.81413   5034.99957    108.00000      8.70131
       3567.80000   3567.81177   2736.45674     12.28427      0.86085     56.49781     45.25133     14.50627     15.33212     16.09152     16.88040     17.70323      2.40525      0.03520      0.14357      0.14089   4108.09900    104.06330      2.49469    138.00000     10.81284   5042.00054    108.00000      8.69794
       3568.00000   3567.98950   2736.51030     12.26189      0.86154      -999.25     45.05515     14.49052     15.32567     16.08529     16.83980     17.59885      2.40944      0.04098      0.13909      0.12947   4130.62300    105.51600      2.52280    141.00000     10.81421   5040.99978    108.00000      8.69035
       3568.20000   3568.19263   2736.56384     12.29397      0.86265     52.60262     45.33804     14.55578     15.33313     16.07210     16.82615     17.56901      2.40679      0.04111      0.15001      0.13581   4134.66400    101.86470      2.54842    141.00000     10.81500   5036.99964    108.00000      8.69043
       3568.40000   3568.39478   2736.61734     20.31415      0.86488     56.49781     45.64281     14.64412     15.38551     16.11976     16.89373     17.65300      2.40402      0.03513      0.14256      0.13121   4076.96500    105.63770      2.54428    142.00000     10.69538   4941.00061    108.00000      8.69096
       3568.60000   3568.59888   2736.67082     20.50995      0.86558      -999.25     46.71114     14.65261     15.39151     16.14638     16.93744     17.68526      2.40934      0.03610      0.14195      0.14383   4125.02700    101.29680      2.52211    143.00000     10.65611   4971.00022    108.00000      8.70642
       3568.80000   3568.80151   2736.72426     20.61660      0.86642     50.70718     46.08025     14.62533     15.39016     16.14343     16.92879     17.69496      2.41741      0.04911      0.15112      0.14129   4133.66900    100.63620      2.56835    138.00000     10.68255   4971.00022    108.00000      8.70904
       3569.00000   3569.00562   2736.77768     20.67405      0.86835     50.70718     45.31851     14.63148     15.41675     16.14094     16.88262     17.64180      2.42550      0.07839      0.14604      0.12829   4138.92600    101.67150      2.71057    143.00000     10.75543   5053.00020    108.00000      8.69379
