~VERSION INFORMATION 
VERS  .    2.0                                     :CWLS Log ASCII Standard - VERSION 2.0
WRAP  .    NO                                      :One Line per Depth step
PROD  .    YY.           :LAS Producer
PROG  .    Horizon LASWriter 4.0.9163.3000         :LAS Program name and version
SOURCE.    Run 2-Drilling                          :Run&Pass Information
CREA  .    06/28/2014                              :LAS Creation date {MM/DD/YYYY}
#--------------------------------------------------
~WELL INFORMATION 
#MNEM           .UNIT                      DATA            :DESCRIPTION
#----            ------          --------------            -----------------------------
STRT            .m                   3200.00000            :START DEPTH
STOP            .m                   3716.80000            :STOP DEPTH
STEP            .m                          0.2            :STEP
NULL            .                       -999.25            :NULL VALUE
COMP            .               XX.:COMPANY
WELL            .                     TBG-B3ST2            :WELL NAME
FLD             .                      Tembungo            :FIELD NAME
RIGN            .                Aquamarine Driller        :Rig Name
RIGTYP          .                       Jack-up            :Rig Type
SON             .                     14MDD0152            :Service Order Number
SRVC            .                  YY            :SERVICE COMPANY
DATE            .                    06/24/2014            :LOG DATE(Composite Date for Composite LAP) (MM/DD/YYYY)
CLAB            .                       County:            :County Label
CNTY            .                                          :COUNTY
SLAB            .                        State:            :State/Province Label
STAT            .                         Sabah            :STATE or PROVINCE
PROV            .                         Sabah            :STATE or PROVINCE
CTRY            .                      Malaysia            :COUNTRY
CONT_REGION     .                          Asia            :Continent Region
SECT            .                                          :Section
TOWN            .                                          :Township
RANG            .                                          :Range
API             .                                          :API NUMBER
UWI             .                     14MDD0152            :UNIQUE WELL ID
LUL             .                Port Side, Main Deck      :Logging Unit Location
LUN             .                   OLU-MA-5062            :Logging Unit Number
LOC             .                Offshore Sabah            :FIELD LOCATION
FL1             .                N 730338.480 m            :Field Location Line 1
FL2             .                E 363301.236 m            :Field Location Line 2
LATI            .deg                  6.6062675            :LATITUDE
LONG            .deg                  115.76330            :LONGITUDE
PDAT            .                           MSL            :Local Permanent Datum
LMF             .                            DF            :Logging Measured From
APD             .m                        37.55            :Elevation of Depth Reference (LMF) Above Permanent Datum
EPD             .m                         0.00            :Elevation of Permanent Datum (PDAT) above Mean Sea Level
EKB             .m                      -999.25            :Elevation of Kelly Bushing Above Permanent Datum
EDF             .m                        37.55            :Elevation of Drill Floor Above Permanent Datum
EGL             .m                       -86.26            :Elevation of Ground Level Above Permanent Datum
ECF             .m                      -999.25            :Elevation of Casing Flange above Permanent Datum
#--------------------------------------------------
~CURVE INFORMATION
#MNEM           .UNIT                  API CODE            :DESCRIPTION
#----            ------          --------------            -----------------------------
DEPT            .m                                         :                                                        Depth Index
DEPTH           .m                                         :(RT)    (DnMWorkflow)           (1in)                   Depth Index
TVDE            .m                                         :(RT)    (DnMWorkflow)           (6in)                   True Vertical Depth
ROP5            .m/h                                       :(RT)    (DRILLING_SURFACE)      (6in)                   Rate of penetration averaged over the last 5 ft (1.5 m)
TAB_RES         .h                                         :        (DV6MT)                 (6in)                   Resistivity Time After Bit
GR              .gAPI                                      :(RT)    (PDX5_675)              (6in)                   Gamma Ray
GR              .gAPI                                      :(RM)    (DV6MT)                 (6in)                   Gamma Ray
P16H            .ohm.m                                     :(RM)    (DV6MT)                 (6in)                   Phase Shift Resistivity 16 inch Spacing at 2 MHz, Environmentally Corrected.
P22H            .ohm.m                                     :(RM)    (DV6MT)                 (6in)                   Phase Shift Resistivity 22 inch Spacing at 2 MHz, Environmentally Corrected.
P28H            .ohm.m                                     :(RM)    (DV6MT)                 (6in)                   Phase Shift Resistivity 28 inch Spacing at 2 MHz, Environmentally Corrected.
P34H            .ohm.m                                     :(RM)    (DV6MT)                 (6in)                   Phase Shift Resistivity 34 inch Spacing at 2 MHz, Environmentally Corrected.
P40H            .ohm.m                                     :(RM)    (DV6MT)                 (6in)                   Phase Shift Resistivity 40 inch Spacing at 2 MHz, Environmentally Corrected.
ROBB            .g/cm3                                     :(RM)    (DV6MT)                 (6in)                   Bulk Density, Bottom
DRHB            .g/cm3                                     :(RM)    (DV6MT)                 (6in)                   Bulk Density Correction, Bottom
TNPH            .V/V                                       :(RM)    (DV6MT)                 (6in)                   Thermal Neutron Porosity (Ratio Method) in Selected Lithology
TNPB_UNC        .ft3/ft3                                   :(RM)    (DV6MT)                 (6in)                   Uncorrected Thermal Neutron Porosity, Bottom (only hole size correction applied)
NER1            .1/s                                       :(RM)    (DV6MT)                 (6in)                   Neutron Near Tube 1 Average Count Rate
FAR1            .1/s                                       :(RM)    (DV6MT)                 (6in)                   Neutron Far Tube 1 Average Count Rate
PEB             .                                          :(RM)    (DV6MT)                 (6in)                   Photoelectric Factor, Bottom
RPM             .c/min                                     :(RT)    (DRILLING_SURFACE)      (6in)                   Rotational Speed
ECD             .lbm/gal                                   :(RM)    (DV6MT)                 (6in)                   Equivalent Circulating Density
DHAP            .psi                                       :(RM)    (DV6MT)                 (6in)                   Downhole Annulus Pressure
DHAT            .degC                                      :(RM)    (DV6MT)                 (6in)                   Downhole Annulus Temperature
UCAV            .in                                        :(RM)    (DV6MT)                 (6in)                   Ultrasonic Caliper Average
#-------------------------------------------------------------
#            DEPT        DEPTH         TVDE         ROP5      TAB_RES           GR           GR         P16H         P22H         P28H         P34H         P40H         ROBB         DRHB         TNPH     TNPB_UNC         NER1         FAR1          PEB          RPM          ECD         DHAP         DHAT         UCAV 
#                  (DnMWorkfl)  (DnMWorkfl)  (DRILLING_)      (DV6MT)   (PDX5_675)      (DV6MT)      (DV6MT)      (DV6MT)      (DV6MT)      (DV6MT)      (DV6MT)      (DV6MT)      (DV6MT)      (DV6MT)      (DV6MT)      (DV6MT)      (DV6MT)      (DV6MT)  (DRILLING_)      (DV6MT)      (DV6MT)      (DV6MT)      (DV6MT) 
#                         (RT)         (RT)         (RT)                      (RT)         (RM)         (RM)         (RM)         (RM)         (RM)         (RM)         (RM)         (RM)         (RM)         (RM)         (RM)         (RM)         (RM)         (RT)         (RM)         (RM)         (RM)         (RM) 
#                        (1in)        (6in)        (6in)        (6in)        (6in)        (6in)        (6in)        (6in)        (6in)        (6in)        (6in)        (6in)        (6in)        (6in)        (6in)        (6in)        (6in)        (6in)        (6in)        (6in)        (6in)        (6in)        (6in) 
~ASCII
# ...
       3397.60000   3397.60571   2683.45649     20.52800      0.71667     36.79575     32.33945     39.35569     41.93616     43.98123     45.54046     46.81863      2.33526      0.02598      0.14002      0.13156   4055.88200    107.49180      2.35478    139.00000     10.81312   4946.00006    104.00000      8.66082
       3397.80000   3397.80981   2683.52603     20.23936      0.71611     40.06493     32.66952     38.74744     41.45194     43.59643     45.19753     46.48326      2.34324      0.03120      0.14207      0.13442   4068.51800    107.34330      2.35521    139.00000     10.80752   4935.00040    104.00000      8.66519
       3398.00000   3398.01318   2683.59551     19.94613      0.71528      -999.25     31.57816     38.12751     40.68998     42.80319     44.49927     45.90614      2.33723      0.02541      0.13590      0.13388   4036.07900    108.23220      2.26972    140.00000     10.81174   4937.99978    104.00000      8.65401
       3398.20000   3398.19067   2683.66495     20.03998      0.71500      -999.25     31.42607     37.77704     40.40974     42.59615     44.33834     45.76062      2.32780      0.02144      0.13962      0.12534   4079.49500    104.66310      2.26731    143.00000     10.80876   4933.99964    104.00000      8.66187
       3398.40000   3398.39209   2683.73435     19.71136      0.71375     41.75169     30.61913     37.64492     40.15399     42.17290     43.76701     45.11150      2.32750      0.02340      0.14942      0.13970   4032.99900    105.50230      2.25640    144.00000     10.81057   4929.99950    104.00000      8.66152
       3398.60000   3398.59619   2683.80370     19.96328      0.71306     41.75169     30.77118     37.32693     39.64566     41.70410     43.41854     44.75155      2.32862      0.02678      0.13503      0.13047   4094.58900    108.99540      2.25367    143.00000     10.81499   4943.99999    104.00000      8.66152
       3398.80000   3398.80029   2683.87301     19.97207      0.71223      -999.25     30.64426     37.13255     39.50201     41.49792     43.09168     44.35741      2.32066      0.02285      0.14247      0.13130   3996.41900    103.95370      2.24642    144.00000     10.80993   4943.00068    104.00000      8.65820
       3399.00000   3399.00342   2683.94226     19.48073      0.71043     38.41295     29.88872     36.97457     39.29402     41.29679     42.90571     44.14369      2.31712      0.02221      0.13553      0.12268   4077.57200    110.91490      2.22989    142.00000     10.81337   4933.00033    104.00000      8.65925
       3399.20000   3399.20557   2684.01148     19.42027      0.70986      -999.25     30.26831     36.64920     39.06114     41.13146     42.72158     43.87857      2.32129      0.02216      0.14456      0.13123   4054.44500    104.83300      2.24661    140.00000     10.81873   4946.00006    104.00000      8.65480
       3399.40000   3399.40967   2684.08065     19.31006      0.70723      -999.25     31.45226     36.95236     39.00910     40.79865     42.28638     43.46468      2.33198      0.02892      0.13292      0.11015   4039.85500    107.42800      2.25527    140.00000     10.81110   4935.00040    104.00000      8.65724
       3399.60000   3399.61304   2684.14977     19.01352      0.70556     38.41295     31.26818     36.81897     38.84568     40.64183     42.14673     43.32000      2.33242      0.03070      0.13642      0.13657   4023.99800    106.00390      2.27733    139.00000     10.81616   4943.00068    104.00000      8.65978
       3399.80000   3399.78882   2684.21884     18.89315      0.70500      -999.25     30.47934     36.72675     38.70522     40.53789     42.08079     43.21562      2.33813      0.03150      0.14668      0.13516   4098.57600    105.14380      2.29371    139.00000     10.80719   4933.99964    104.00000      8.66030
       3400.00000   3399.99365   2684.28787     18.56972      0.70319      -999.25     30.05824     36.46417     38.46852     40.29457     41.83632     43.00573      2.32987      0.02500      0.13795      0.15165   4028.54100    106.49260      2.22656    141.00000     10.81518   4944.99930    104.00000      8.65296
       3400.20000   3400.19629   2684.35686     18.33921      0.70222     40.06493     30.74904     36.51185     38.38170     40.08405     41.60077     42.84103      2.32660      0.02525      0.13917      0.12206   4065.48700    107.41940      2.28299    141.00000     10.81257   4944.99930    104.00000      8.65541
       3400.40000   3400.40112   2684.42580     18.44275      0.70279      -999.25     31.18109     36.32373     38.17464     39.82306     41.25378     42.41438      2.33311      0.02639      0.13942      0.13388   4048.74100    104.74840      2.31181    144.00000     10.81015   4939.99985    104.00000      8.65052
       3400.60000   3400.60303   2684.49469     19.06436      0.70350      -999.25     31.67892     36.02188     37.86205     39.48669     40.86475     41.96057      2.33192      0.02393      0.14136      0.12654   4061.16300    106.80030      2.30192    141.00000     10.80911   4929.00019    104.00000      8.65235
       3400.80000   3400.80664   2684.56354     19.30732      0.70431     35.21332     31.93389     35.71759     37.58938     39.26903     40.69489     41.80736      2.32120      0.02226      0.13549      0.13174   4010.50100    108.30900      2.27534    144.00000     10.80792   4937.00047    104.00000      8.65113
       3401.00000   3401.00928   2684.63234     19.73525      0.70474      -999.25     31.60642     35.64530     37.34771     38.89910     40.28384     41.41487      2.31909      0.02186      0.14357      0.13755   4061.08800    106.39900      2.24317    140.00000     10.81212   4944.99930    104.00000      8.65978
       3401.20000   3401.21411   2684.70110     20.33868      0.70640      -999.25     30.58822     35.28465     36.95783     38.48323     39.86983     41.03057      2.32406      0.02402      0.13910      0.13353   4058.97900    109.40190      2.32520    142.00000     10.80656   4937.99978    104.00000      8.65978
       3401.40000   3401.38965   2684.76981     20.77938      0.70694     40.06493     30.19505     34.94364     36.64081     38.18076     39.54842     40.66667      2.32786      0.02337      0.14109      0.14179   4073.09300    108.93160      2.33572    144.00000     10.81337   4954.00034    104.00000      8.65785
       3401.60000   3401.59253   2684.83847     21.31995      0.70807      -999.25     31.08470     34.85023     36.41381     37.92265     39.27293     40.30172      2.32775      0.02527      0.14009      0.13355   4029.40500    106.34010      2.31233    139.00000     10.81123   4943.00068    104.00000      8.65663
       3401.80000   3401.79712   2684.90709     21.77357      0.70986      -999.25     29.62684     34.70204     36.16861     37.61752     38.89112     39.80349      2.30562      0.01604      0.14038      0.12940   4014.26000    105.62450      2.21111    142.00000     10.81368   4950.99951    104.00000      8.65506
       3402.00000   3402.00000   2684.97566     21.74508      0.71168     35.21332     28.45699     34.77963     36.13871     37.50323     38.75921     39.70663      2.30871      0.01744      0.13576      0.12365   4055.52400    108.24530      2.22252    140.00000     10.81569   4937.00047    104.00000      8.66030
       3402.20000   3402.20264   2685.04419     21.77468      0.71307      -999.25     28.99158     34.71777     36.26498     37.69202     38.95777     39.96526      2.30896      0.01225      0.14206      0.13167   4042.37700    107.88190      2.18505    142.00000     10.81585   4937.99978    104.00000      8.66213
       3402.40000   3402.40527   2685.11267     21.74720      0.71460     38.41295     28.01000     34.99109     36.34745     37.62585     38.77160     39.66630      2.31953      0.01314      0.13652      0.13023   4056.21400    107.00910      2.16995    144.00000     10.81456   4941.99992    104.00000      8.65611
       3402.60000   3402.61011   2685.18111     21.75011      0.71668     38.41295     29.42299     35.18184     36.56668     37.76326     38.76410     39.55623      2.31906      0.01748      0.13925      0.13558   4055.96600    106.96610      2.22372    141.00000     10.81387   4952.00027    104.00000      8.65873
