~VERSION INFORMATION 
VERS  .    2.0                                     :CWLS Log ASCII Standard - VERSION 2.0
WRAP  .    NO                                      :One Line per Depth step
PROD  .    YY.           :LAS Producer
PROG  .    Horizon LASWriter 4.0.9163.3000         :LAS Program name and version
SOURCE.    Run 2-Drilling                          :Run&Pass Information
CREA  .    06/28/2014                              :LAS Creation date {MM/DD/YYYY}
#--------------------------------------------------
~WELL INFORMATION 
#MNEM           .UNIT                      DATA            :DESCRIPTION
#----            ------          --------------            -----------------------------
STRT            .m                   3200.00000            :START DEPTH
STOP            .m                   3716.80000            :STOP DEPTH
STEP            .m                          0.2            :STEP
NULL            .                       -999.25            :NULL VALUE
COMP            .               XX.:COMPANY
WELL            .                     TBG-B3ST2            :WELL NAME
FLD             .                      Tembungo            :FIELD NAME
RIGN            .                Aquamarine Driller        :Rig Name
RIGTYP          .                       Jack-up            :Rig Type
SON             .                     14MDD0152            :Service Order Number
SRVC            .                  YY            :SERVICE COMPANY
DATE            .                    06/24/2014            :LOG DATE(Composite Date for Composite LAP) (MM/DD/YYYY)
CLAB            .                       County:            :County Label
CNTY            .                                          :COUNTY
SLAB            .                        State:            :State/Province Label
STAT            .                         Sabah            :STATE or PROVINCE
PROV            .                         Sabah            :STATE or PROVINCE
CTRY            .                      Malaysia            :COUNTRY
CONT_REGION     .                          Asia            :Continent Region
SECT            .                                          :Section
TOWN            .                                          :Township
RANG            .                                          :Range
API             .                                          :API NUMBER
UWI             .                     14MDD0152            :UNIQUE WELL ID
LUL             .                Port Side, Main Deck      :Logging Unit Location
LUN             .                   OLU-MA-5062            :Logging Unit Number
LOC             .                Offshore Sabah            :FIELD LOCATION
FL1             .                N 730338.480 m            :Field Location Line 1
FL2             .                E 363301.236 m            :Field Location Line 2
LATI            .deg                  6.6062675            :LATITUDE
LONG            .deg                  115.76330            :LONGITUDE
PDAT            .                           MSL            :Local Permanent Datum
LMF             .                            DF            :Logging Measured From
APD             .m                        37.55            :Elevation of Depth Reference (LMF) Above Permanent Datum
EPD             .m                         0.00            :Elevation of Permanent Datum (PDAT) above Mean Sea Level
EKB             .m                      -999.25            :Elevation of Kelly Bushing Above Permanent Datum
EDF             .m                        37.55            :Elevation of Drill Floor Above Permanent Datum
EGL             .m                       -86.26            :Elevation of Ground Level Above Permanent Datum
ECF             .m                      -999.25            :Elevation of Casing Flange above Permanent Datum
#--------------------------------------------------
~CURVE INFORMATION
#MNEM           .UNIT                  API CODE            :DESCRIPTION
#----            ------          --------------            -----------------------------
DEPT            .m                                         :                                                        Depth Index
DEPTH           .m                                         :(RT)    (DnMWorkflow)           (1in)                   Depth Index
TVDE            .m                                         :(RT)    (DnMWorkflow)           (6in)                   True Vertical Depth
ROP5            .m/h                                       :(RT)    (DRILLING_SURFACE)      (6in)                   Rate of penetration averaged over the last 5 ft (1.5 m)
TAB_RES         .h                                         :        (DV6MT)                 (6in)                   Resistivity Time After Bit
GR              .gAPI                                      :(RT)    (PDX5_675)              (6in)                   Gamma Ray
GR              .gAPI                                      :(RM)    (DV6MT)                 (6in)                   Gamma Ray
P16H            .ohm.m                                     :(RM)    (DV6MT)                 (6in)                   Phase Shift Resistivity 16 inch Spacing at 2 MHz, Environmentally Corrected.
P22H            .ohm.m                                     :(RM)    (DV6MT)                 (6in)                   Phase Shift Resistivity 22 inch Spacing at 2 MHz, Environmentally Corrected.
P28H            .ohm.m                                     :(RM)    (DV6MT)                 (6in)                   Phase Shift Resistivity 28 inch Spacing at 2 MHz, Environmentally Corrected.
P34H            .ohm.m                                     :(RM)    (DV6MT)                 (6in)                   Phase Shift Resistivity 34 inch Spacing at 2 MHz, Environmentally Corrected.
P40H            .ohm.m                                     :(RM)    (DV6MT)                 (6in)                   Phase Shift Resistivity 40 inch Spacing at 2 MHz, Environmentally Corrected.
ROBB            .g/cm3                                     :(RM)    (DV6MT)                 (6in)                   Bulk Density, Bottom
DRHB            .g/cm3                                     :(RM)    (DV6MT)                 (6in)                   Bulk Density Correction, Bottom
TNPH            .V/V                                       :(RM)    (DV6MT)                 (6in)                   Thermal Neutron Porosity (Ratio Method) in Selected Lithology
TNPB_UNC        .ft3/ft3                                   :(RM)    (DV6MT)                 (6in)                   Uncorrected Thermal Neutron Porosity, Bottom (only hole size correction applied)
NER1            .1/s                                       :(RM)    (DV6MT)                 (6in)                   Neutron Near Tube 1 Average Count Rate
FAR1            .1/s                                       :(RM)    (DV6MT)                 (6in)                   Neutron Far Tube 1 Average Count Rate
PEB             .                                          :(RM)    (DV6MT)                 (6in)                   Photoelectric Factor, Bottom
RPM             .c/min                                     :(RT)    (DRILLING_SURFACE)      (6in)                   Rotational Speed
ECD             .lbm/gal                                   :(RM)    (DV6MT)                 (6in)                   Equivalent Circulating Density
DHAP            .psi                                       :(RM)    (DV6MT)                 (6in)                   Downhole Annulus Pressure
DHAT            .degC                                      :(RM)    (DV6MT)                 (6in)                   Downhole Annulus Temperature
UCAV            .in                                        :(RM)    (DV6MT)                 (6in)                   Ultrasonic Caliper Average
#-------------------------------------------------------------
#            DEPT        DEPTH         TVDE         ROP5      TAB_RES           GR           GR         P16H         P22H         P28H         P34H         P40H         ROBB         DRHB         TNPH     TNPB_UNC         NER1         FAR1          PEB          RPM          ECD         DHAP         DHAT         UCAV 
#                  (DnMWorkfl)  (DnMWorkfl)  (DRILLING_)      (DV6MT)   (PDX5_675)      (DV6MT)      (DV6MT)      (DV6MT)      (DV6MT)      (DV6MT)      (DV6MT)      (DV6MT)      (DV6MT)      (DV6MT)      (DV6MT)      (DV6MT)      (DV6MT)      (DV6MT)  (DRILLING_)      (DV6MT)      (DV6MT)      (DV6MT)      (DV6MT) 
#                         (RT)         (RT)         (RT)                      (RT)         (RM)         (RM)         (RM)         (RM)         (RM)         (RM)         (RM)         (RM)         (RM)         (RM)         (RM)         (RM)         (RM)         (RT)         (RM)         (RM)         (RM)         (RM) 
#                        (1in)        (6in)        (6in)        (6in)        (6in)        (6in)        (6in)        (6in)        (6in)        (6in)        (6in)        (6in)        (6in)        (6in)        (6in)        (6in)        (6in)        (6in)        (6in)        (6in)        (6in)        (6in)        (6in) 
~ASCII
# ...
       3501.60000   3501.59180   2717.08075     21.09203      1.48057     35.21332     26.20102     35.87007     35.88836     36.39142     36.90462     36.99125      2.31117      0.03600      0.13841      0.12043   3961.26500    108.61540      2.23495    142.00000     10.84906   5023.99991    106.00000      8.67130
       3501.80000   3501.79590   2717.14356     20.68566      1.47918      -999.25     25.21793     36.23858     36.30686     36.51658     36.65748     36.60563      2.29414      0.02015      0.14987      0.14866   4008.63500    102.38450      2.22005    143.00000     10.85083   5019.00046    106.00000      8.66397
       3502.00000   3502.00049   2717.20635     20.66287      1.47904     35.21332     24.37204     37.07327     36.65864     36.63018     36.63239     36.40871      2.28603      0.01421      0.14108      0.13898   4014.14800    106.47880      2.19940    143.00000     10.85315   5025.00067    106.00000      8.67314
       3502.20000   3502.20288   2717.26912     20.53109      1.47821     30.67472     23.98092     37.57891     36.89856     36.88511     36.95574     36.65897      2.29655      0.02022      0.14289      0.12627   4006.81800    106.81330      2.18149    139.00000     10.85384   5023.99991    106.00000      8.66825
       3502.40000   3502.40649   2717.33188     20.48408      1.47766     35.21332     26.05205     38.18078     37.46447     37.24299     37.14658     36.87337      2.32192      0.03802      0.14466      0.14137   4010.79000    106.60170      2.21696    142.00000     10.85716   5023.00060    106.00000      8.66886
       3502.60000   3502.61011   2717.39461     20.38233      1.47657      -999.25     26.10980     38.33226     37.73425     37.50359     37.32971     37.00789      2.31532      0.03138      0.15527      0.15459   4013.63200    102.80250      2.19427    138.00000     10.85230   5017.99970    106.00000      8.66397
       3502.80000   3502.81226   2717.45733     20.23712      1.47601      -999.25     26.82914     38.82490     38.01653     37.60286     37.24793     36.77163      2.31292      0.02558      0.14405      0.14075   4045.08900    106.88780      2.15531    142.00000     10.85606   5028.99936    106.00000      8.66091
       3503.00000   3502.99072   2717.52003     19.67766      1.47323     35.21332     25.67661     39.58081     38.74949     38.19134     37.71336     37.23569      2.30933      0.01219      0.13795      0.13621   4079.23600    109.40540      2.25874    136.00000     10.72131   4952.99958    106.00000      8.67069
       3503.20000   3503.19458   2717.58272     19.67333      1.47252     36.79575     25.04514     40.12363     39.25788     38.66844     38.15400     37.64133      2.32278      0.02075      0.14238      0.14202   4011.55300    105.12280      2.36999    139.00000     10.79065   4986.00002    106.00000      8.66702
       3503.40000   3503.39551   2717.64538     19.54796      1.47113     41.75169     26.55495     40.77948     39.74947     39.11555     38.56236     37.95567      2.33552      0.02588      0.13650      0.13100   4030.75300    109.04310      2.38915    138.00000     10.77030   4971.00022    106.00000      8.66659
       3503.60000   3503.60107   2717.70803     19.07511      1.46836     35.21332     28.77340     41.49174     40.61959     40.04359     39.39468     38.62570      2.33506      0.01866      0.14108      0.14771   4090.03400    107.60070      2.31666    141.00000     10.79656   5013.00025    106.00000      8.66825
       3503.80000   3503.80371   2717.77066     18.73360      1.46682     36.79575     28.33979     42.24390     41.29509     40.51441     39.70323     38.92339      2.32689      0.01615      0.15011      0.13250   4112.54100    105.28960      2.29638    142.00000     10.81079   4996.99968    106.00000      8.67235
       3504.00000   3504.00586   2717.83327     18.43733      1.46502      -999.25     28.69569     42.87906     41.82335     41.00882     40.20419     39.42650      2.32208      0.01932      0.13773      0.14079   4052.72800    108.16790      2.30850    142.00000     10.74967   4998.00044    106.00000      8.67192
       3504.20000   3504.21021   2717.89586     18.27918      1.46322     36.79575     27.99825     43.45068     42.41549     41.56988     40.69166     39.84671      2.31832      0.02366      0.14093      0.13720   4042.11300    106.28860      2.30240    138.00000     10.78194   4965.00001    106.00000      8.67253
       3504.40000   3504.41235   2717.95844     17.82351      1.45932     35.21332     27.30887     44.05143     43.14819     42.34677     41.45303     40.59008      2.32832      0.02750      0.14058      0.13899   4044.03800    106.81060      2.23617    139.00000     10.84572   5023.99991    106.00000      8.67130
       3504.60000   3504.58911   2718.02100     17.74290      1.45724     33.66567     27.36060     44.36017     43.51094     42.71194     41.79873     40.92962      2.31759      0.02006      0.14285      0.14275   4022.25500    106.46450      2.22306    143.00000     10.84944   5023.99991    106.00000      8.68109
       3504.80000   3504.79370   2718.08354     17.44067      1.45517     33.66567     27.94813     45.39656     44.22250     43.18457     42.20190     41.38913      2.32453      0.02582      0.14823      0.13265   4074.10500    104.13700      2.25971    133.00000     10.85682   5019.99977    106.00000      8.69433
       3505.00000   3504.99756   2718.14606     17.17183      1.45100     33.66567     27.64291     46.11923     45.03925     44.08153     43.12736     42.29675      2.33020      0.03567      0.14217      0.14415   4011.37800    108.20580      2.25871    138.00000     10.85464   5028.00005    106.00000      8.69820
       3505.20000   3505.19971   2718.20856     17.01143      1.44879      -999.25     28.27527     45.91911     45.19386     44.33263     43.30793     42.41228      2.32432      0.03421      0.14706      0.12457   4016.95200    104.85100      2.26427    140.00000     10.85496   5023.99991    106.00000      8.69331
       3505.40000   3505.40186   2718.27105     15.15511      1.39946     36.79575     29.03875     47.09261     45.81673     44.63990     43.52612     42.64008      2.33262      0.03862      0.13246      0.12432   3989.94800    107.71670      2.26288    139.00000     10.85281   5028.99936    106.00000      8.68021
       3505.60000   3505.60693   2718.33351     13.50486      1.38364     38.41295     28.05053     47.76160     46.55309     45.51342     44.44966     43.48434      2.33806      0.03735      0.14596      0.13593   4000.69000    104.51620      2.30543    139.00000     10.85965   5023.99991    106.00000      8.67925
       3505.80000   3505.80908   2718.39596     12.75305      1.37515      -999.25     27.36630     47.92458     46.71139     45.73323     44.70656     43.71093      2.33831      0.03476      0.13877      0.13562   3995.16000    107.45440      2.36424    142.00000     10.85946   5028.99936    106.00000      8.67253
       3506.00000   3505.98779   2718.45839     12.55110      1.37113      -999.25     29.52847     49.11340     47.50953     46.25605     45.00765     43.83269      2.33828      0.02998      0.14251      0.12592   4059.83000    107.07210      2.32588    138.00000     10.86033   5034.99957    106.00000      8.67917
       3506.20000   3506.18945   2718.52081     12.46510      1.36614     35.21332     29.28887     49.65836     48.37660     47.19348     45.88122     44.66868      2.35259      0.03253      0.13503      0.13057   4067.20000    109.56200      2.33810    142.00000     10.86351   5030.00012    106.00000      8.67620
       3506.40000   3506.39331   2718.58320     12.40783      1.36349      -999.25     27.81425     50.27330     48.66262     47.36893     46.07780     44.88275      2.34225      0.02720      0.14366      0.12674   4072.21300    106.08440      2.37464    142.00000     10.86300   5021.99984    106.00000      8.67393
       3506.60000   3506.59839   2718.64558     12.33748      1.36071     43.47324     28.29670     50.10765     48.66997     47.40648     46.09356     44.91177      2.33750      0.02170      0.13756      0.12699   4114.01000    108.14110      2.36560    143.00000     10.86282   5025.99998    106.00000      8.67191
