~VERSION INFORMATION 
VERS  .    2.0                                     :CWLS Log ASCII Standard - VERSION 2.0
WRAP  .    NO                                      :One Line per Depth step
PROD  .    YY.           :LAS Producer
PROG  .    Horizon LASWriter 4.0.9163.3000         :LAS Program name and version
SOURCE.    Run 2-Drilling                          :Run&Pass Information
CREA  .    06/28/2014                              :LAS Creation date {MM/DD/YYYY}
#--------------------------------------------------
~WELL INFORMATION 
#MNEM           .UNIT                      DATA            :DESCRIPTION
#----            ------          --------------            -----------------------------
STRT            .m                   3200.00000            :START DEPTH
STOP            .m                   3716.80000            :STOP DEPTH
STEP            .m                          0.2            :STEP
NULL            .                       -999.25            :NULL VALUE
COMP            .               XX.:COMPANY
WELL            .                     TBG-B3ST2            :WELL NAME
FLD             .                      Tembungo            :FIELD NAME
RIGN            .                Aquamarine Driller        :Rig Name
RIGTYP          .                       Jack-up            :Rig Type
SON             .                     14MDD0152            :Service Order Number
SRVC            .                  YY            :SERVICE COMPANY
DATE            .                    06/24/2014            :LOG DATE(Composite Date for Composite LAP) (MM/DD/YYYY)
CLAB            .                       County:            :County Label
CNTY            .                                          :COUNTY
SLAB            .                        State:            :State/Province Label
STAT            .                         Sabah            :STATE or PROVINCE
PROV            .                         Sabah            :STATE or PROVINCE
CTRY            .                      Malaysia            :COUNTRY
CONT_REGION     .                          Asia            :Continent Region
SECT            .                                          :Section
TOWN            .                                          :Township
RANG            .                                          :Range
API             .                                          :API NUMBER
UWI             .                     14MDD0152            :UNIQUE WELL ID
LUL             .                Port Side, Main Deck      :Logging Unit Location
LUN             .                   OLU-MA-5062            :Logging Unit Number
LOC             .                Offshore Sabah            :FIELD LOCATION
FL1             .                N 730338.480 m            :Field Location Line 1
FL2             .                E 363301.236 m            :Field Location Line 2
LATI            .deg                  6.6062675            :LATITUDE
LONG            .deg                  115.76330            :LONGITUDE
PDAT            .                           MSL            :Local Permanent Datum
LMF             .                            DF            :Logging Measured From
APD             .m                        37.55            :Elevation of Depth Reference (LMF) Above Permanent Datum
EPD             .m                         0.00            :Elevation of Permanent Datum (PDAT) above Mean Sea Level
EKB             .m                      -999.25            :Elevation of Kelly Bushing Above Permanent Datum
EDF             .m                        37.55            :Elevation of Drill Floor Above Permanent Datum
EGL             .m                       -86.26            :Elevation of Ground Level Above Permanent Datum
ECF             .m                      -999.25            :Elevation of Casing Flange above Permanent Datum
#--------------------------------------------------
~CURVE INFORMATION
#MNEM           .UNIT                  API CODE            :DESCRIPTION
#----            ------          --------------            -----------------------------
DEPT            .m                                         :                                                        Depth Index
DEPTH           .m                                         :(RT)    (DnMWorkflow)           (1in)                   Depth Index
TVDE            .m                                         :(RT)    (DnMWorkflow)           (6in)                   True Vertical Depth
ROP5            .m/h                                       :(RT)    (DRILLING_SURFACE)      (6in)                   Rate of penetration averaged over the last 5 ft (1.5 m)
TAB_RES         .h                                         :        (DV6MT)                 (6in)                   Resistivity Time After Bit
GR              .gAPI                                      :(RT)    (PDX5_675)              (6in)                   Gamma Ray
GR              .gAPI                                      :(RM)    (DV6MT)                 (6in)                   Gamma Ray
P16H            .ohm.m                                     :(RM)    (DV6MT)                 (6in)                   Phase Shift Resistivity 16 inch Spacing at 2 MHz, Environmentally Corrected.
P22H            .ohm.m                                     :(RM)    (DV6MT)                 (6in)                   Phase Shift Resistivity 22 inch Spacing at 2 MHz, Environmentally Corrected.
P28H            .ohm.m                                     :(RM)    (DV6MT)                 (6in)                   Phase Shift Resistivity 28 inch Spacing at 2 MHz, Environmentally Corrected.
P34H            .ohm.m                                     :(RM)    (DV6MT)                 (6in)                   Phase Shift Resistivity 34 inch Spacing at 2 MHz, Environmentally Corrected.
P40H            .ohm.m                                     :(RM)    (DV6MT)                 (6in)                   Phase Shift Resistivity 40 inch Spacing at 2 MHz, Environmentally Corrected.
ROBB            .g/cm3                                     :(RM)    (DV6MT)                 (6in)                   Bulk Density, Bottom
DRHB            .g/cm3                                     :(RM)    (DV6MT)                 (6in)                   Bulk Density Correction, Bottom
TNPH            .V/V                                       :(RM)    (DV6MT)                 (6in)                   Thermal Neutron Porosity (Ratio Method) in Selected Lithology
TNPB_UNC        .ft3/ft3                                   :(RM)    (DV6MT)                 (6in)                   Uncorrected Thermal Neutron Porosity, Bottom (only hole size correction applied)
NER1            .1/s                                       :(RM)    (DV6MT)                 (6in)                   Neutron Near Tube 1 Average Count Rate
FAR1            .1/s                                       :(RM)    (DV6MT)                 (6in)                   Neutron Far Tube 1 Average Count Rate
PEB             .                                          :(RM)    (DV6MT)                 (6in)                   Photoelectric Factor, Bottom
RPM             .c/min                                     :(RT)    (DRILLING_SURFACE)      (6in)                   Rotational Speed
ECD             .lbm/gal                                   :(RM)    (DV6MT)                 (6in)                   Equivalent Circulating Density
DHAP            .psi                                       :(RM)    (DV6MT)                 (6in)                   Downhole Annulus Pressure
DHAT            .degC                                      :(RM)    (DV6MT)                 (6in)                   Downhole Annulus Temperature
UCAV            .in                                        :(RM)    (DV6MT)                 (6in)                   Ultrasonic Caliper Average
#-------------------------------------------------------------
#            DEPT        DEPTH         TVDE         ROP5      TAB_RES           GR           GR         P16H         P22H         P28H         P34H         P40H         ROBB         DRHB         TNPH     TNPB_UNC         NER1         FAR1          PEB          RPM          ECD         DHAP         DHAT         UCAV 
#                  (DnMWorkfl)  (DnMWorkfl)  (DRILLING_)      (DV6MT)   (PDX5_675)      (DV6MT)      (DV6MT)      (DV6MT)      (DV6MT)      (DV6MT)      (DV6MT)      (DV6MT)      (DV6MT)      (DV6MT)      (DV6MT)      (DV6MT)      (DV6MT)      (DV6MT)  (DRILLING_)      (DV6MT)      (DV6MT)      (DV6MT)      (DV6MT) 
#                         (RT)         (RT)         (RT)                      (RT)         (RM)         (RM)         (RM)         (RM)         (RM)         (RM)         (RM)         (RM)         (RM)         (RM)         (RM)         (RM)         (RM)         (RT)         (RM)         (RM)         (RM)         (RM) 
#                        (1in)        (6in)        (6in)        (6in)        (6in)        (6in)        (6in)        (6in)        (6in)        (6in)        (6in)        (6in)        (6in)        (6in)        (6in)        (6in)        (6in)        (6in)        (6in)        (6in)        (6in)        (6in)        (6in) 
~ASCII
# ...
       3699.20000   3699.20410   2768.71813     20.39176      1.39378      -999.25     39.34790      8.26791      8.32440      8.39065      8.44544      8.47475      2.40790     -0.00575      0.14465      0.13477   4069.69000    102.24310      2.78261    140.00000     10.93167   5152.00006    110.00000      8.73681
       3699.40000   3699.40918   2768.76611     20.38502      1.39418     43.47324     40.54726      8.26348      8.32092      8.38485      8.43243      8.45294      2.42703     -0.00335      0.14917      0.14550   4086.21700    101.72440      2.73618    138.00000     10.92658   5150.99930    110.00000      8.71498
       3699.60000   3699.61084   2768.81410     20.46041      1.39517      -999.25     40.64004      8.31033      8.33385      8.37194      8.40519      8.41742      2.46923      0.01147      0.14763      0.15052   4102.18800    100.71850      2.64179    143.00000     10.92786   5149.00068    110.00000      8.72685
       3699.80000   3699.79077   2768.86209     20.44689      1.39572     43.47324     40.57408      8.33322      8.34194      8.37124      8.39495      8.39247      2.47454      0.01813      0.13997      0.14044   4101.31000    101.26680      2.61269    139.00000     10.93110   5154.00013    110.00000      8.71480
       3700.00000   3699.99194   2768.91008     20.46998      1.39600      -999.25     41.36464      8.36389      8.36020      8.37966      8.39444      8.38263      2.47240      0.02462      0.14957      0.14021   4069.63300     98.73922      2.63111    139.00000     10.92696   5149.99999    110.00000      8.71236
       3700.20000   3700.19556   2768.95807     20.52592      1.39586      -999.25     39.31135      8.40546      8.37296      8.36818      8.36763      8.34740      2.49292      0.04798      0.14466      0.12125   4093.31100    101.07200      2.75233    142.00000     10.93031   5154.00013    110.00000      8.69628
       3700.40000   3700.39844   2769.00605     20.64295      1.39571     45.22955     39.25238      8.43888      8.39113      8.37449      8.36684      8.34235      2.48677      0.04872      0.15140      0.13736   4095.17500    100.01340      2.64882    139.00000     10.92804   5152.99937    110.00000      8.69174
       3700.60000   3700.60156   2769.05404     20.65753      1.39572     47.02065     39.76627      8.45169      8.40072      8.37268      8.35334      8.32492      2.46996      0.04883      0.14652      0.13371   4104.58600    104.33300      2.55213    137.00000     10.92719   5147.00061    110.00000      8.69017
       3700.80000   3700.80469   2769.10203     20.63997      1.39558      -999.25     40.09628      8.43602      8.39620      8.36670      8.34194      8.31510      2.44337      0.04744      0.14469      0.12772   4070.16000    101.56380      2.45739    142.00000     10.92624   5143.99978    110.00000      8.69139
       3701.00000   3701.00781   2769.15002     20.27481      1.39432      -999.25     38.79084      8.38196      8.35626      8.32787      8.29913      8.27437      2.40191      0.04973      0.14991      0.14722   4146.79800    101.35480      2.34087    138.00000     10.92504   5147.99992    110.00000      8.69384
       3701.20000   3701.21191   2769.19800     20.20994      1.39405     45.22955     38.79146      8.36453      8.34164      8.31612      8.28932      8.26531      2.38213      0.04580      -999.25      -999.25      -999.25    105.73680      2.25572    141.00000     10.92490   5149.00068    110.00000      8.69803
       3701.40000   3701.38940   2769.24599     20.15453      1.39378     47.02065     38.35448      8.35676      8.32705      8.30046      8.27892      8.26138      2.36715      0.04274      -999.25      -999.25      -999.25      -999.25      2.23334    142.00000     10.92657   5152.99937    110.00000      8.69017
       3701.60000   3701.59229   2769.29398     19.78980      1.39225     47.02065     39.96977   -999.25000   -999.25000   -999.25000   -999.25000   -999.25000      2.34410      0.03614      -999.25      -999.25      -999.25      -999.25      2.33209    142.00000     10.93034   5150.99930    110.00000      8.70004
       3701.80000   3701.79590   2769.34197     19.66887      -999.25     47.02065     40.40735      -999.25      -999.25      -999.25      -999.25      -999.25      2.33623      0.03169      -999.25      -999.25      -999.25      -999.25      2.28426    139.00000     10.93189   5156.00020    110.00000      8.69943
       3702.00000   3701.99927   2769.38996     19.54672      -999.25      -999.25     40.27714      -999.25      -999.25      -999.25      -999.25      -999.25      2.33150      0.02743      -999.25      -999.25      -999.25      -999.25      2.30486    139.00000     10.92811   5154.99944    110.00000      8.70045
       3702.20000   3702.20288   2769.43794     19.15574      -999.25     47.02065     40.60913      -999.25      -999.25      -999.25      -999.25      -999.25      2.33860      0.02561      -999.25      -999.25      -999.25      -999.25      2.36502    138.00000     10.92933   5158.00027    110.00000      8.70100
       3702.40000   3702.40479   2769.48593     19.12202      -999.25      -999.25     40.54203      -999.25      -999.25      -999.25      -999.25      -999.25      2.34278      0.02696      -999.25      -999.25      -999.25      -999.25      2.37164    141.00000     10.93071   5154.99944    110.00000      8.70799
       3702.60000   3702.60938   2769.53392     19.00059      -999.25     47.02065     38.66948      -999.25      -999.25      -999.25      -999.25      -999.25      2.33520      0.02146      -999.25      -999.25      -999.25      -999.25      2.34211    141.00000     10.93026   5154.00013    110.00000      8.70519
       3702.80000   3702.81128   2769.58191     18.64757      -999.25      -999.25     41.32137      -999.25      -999.25      -999.25      -999.25      -999.25      2.35895      0.04002      -999.25      -999.25      -999.25      -999.25      2.36398    142.00000     10.93316   5154.00013    110.00000      8.70677
       3703.00000   3702.98926   2769.62989     18.50979      -999.25     47.02065     43.80531      -999.25      -999.25      -999.25      -999.25      -999.25      2.36416      0.04777      -999.25      -999.25      -999.25      -999.25      2.42231    138.00000     10.93226   5158.00027    110.00000      8.70554
       3703.20000   3703.19409   2769.67788     18.30958      -999.25      -999.25     44.74268      -999.25      -999.25      -999.25      -999.25      -999.25      2.36973      0.04922      -999.25      -999.25      -999.25      -999.25      2.47681    143.00000     10.93392   5156.99951    110.00000      -999.25
       3703.40000   3703.39551   2769.72587     17.81012      -999.25     50.70718     44.62762      -999.25      -999.25      -999.25      -999.25      -999.25      2.36125      0.03885      -999.25      -999.25      -999.25      -999.25      2.48489    143.00000     10.93121   5152.99937    110.00000      -999.25
       3703.60000   3703.59985   2769.77386     17.62155      -999.25     52.60262     44.14492      -999.25      -999.25      -999.25      -999.25      -999.25      -999.25      -999.25      -999.25      -999.25      -999.25      -999.25      -999.25    139.00000     10.93314   5154.99944    110.00000      -999.25
       3703.80000   3703.80298   2769.82185     17.49547      -999.25      -999.25     43.72313      -999.25      -999.25      -999.25      -999.25      -999.25      -999.25      -999.25      -999.25      -999.25      -999.25      -999.25      -999.25    143.00000     10.93229   5149.99999    110.00000      -999.25
       3704.00000   3704.00586   2769.86983     17.39853      -999.25     52.60262     44.00653      -999.25      -999.25      -999.25      -999.25      -999.25      -999.25      -999.25      -999.25      -999.25      -999.25      -999.25      -999.25    140.00000     10.93290   5154.99944    110.00000      -999.25
       3704.20000   3704.20801   2769.91782     17.15297      -999.25     52.60262     47.05795      -999.25      -999.25      -999.25      -999.25      -999.25      -999.25      -999.25      -999.25      -999.25      -999.25      -999.25      -999.25    139.00000     10.93261   5152.99937    110.00000      -999.25
