~VERSION INFORMATION 
VERS  .    2.0                                     :CWLS Log ASCII Standard - VERSION 2.0
WRAP  .    NO                                      :One Line per Depth step
PROD  .    YY.           :LAS Producer
PROG  .    Horizon LASWriter 4.0.9163.3000         :LAS Program name and version
SOURCE.    Run 2-Drilling                          :Run&Pass Information
CREA  .    06/28/2014                              :LAS Creation date {MM/DD/YYYY}
#--------------------------------------------------
~WELL INFORMATION 
#MNEM           .UNIT                      DATA            :DESCRIPTION
#----            ------          --------------            -----------------------------
STRT            .m                   3200.00000            :START DEPTH
STOP            .m                   3716.80000            :STOP DEPTH
STEP            .m                          0.2            :STEP
NULL            .                       -999.25            :NULL VALUE
COMP            .               XX.:COMPANY
WELL            .                     TBG-B3ST2            :WELL NAME
FLD             .                      Tembungo            :FIELD NAME
RIGN            .                Aquamarine Driller        :Rig Name
RIGTYP          .                       Jack-up            :Rig Type
SON             .                     14MDD0152            :Service Order Number
SRVC            .                  YY            :SERVICE COMPANY
DATE            .                    06/24/2014            :LOG DATE(Composite Date for Composite LAP) (MM/DD/YYYY)
CLAB            .                       County:            :County Label
CNTY            .                                          :COUNTY
SLAB            .                        State:            :State/Province Label
STAT            .                         Sabah            :STATE or PROVINCE
PROV            .                         Sabah            :STATE or PROVINCE
CTRY            .                      Malaysia            :COUNTRY
CONT_REGION     .                          Asia            :Continent Region
SECT            .                                          :Section
TOWN            .                                          :Township
RANG            .                                          :Range
API             .                                          :API NUMBER
UWI             .                     14MDD0152            :UNIQUE WELL ID
LUL             .                Port Side, Main Deck      :Logging Unit Location
LUN             .                   OLU-MA-5062            :Logging Unit Number
LOC             .                Offshore Sabah            :FIELD LOCATION
FL1             .                N 730338.480 m            :Field Location Line 1
FL2             .                E 363301.236 m            :Field Location Line 2
LATI            .deg                  6.6062675            :LATITUDE
LONG            .deg                  115.76330            :LONGITUDE
PDAT            .                           MSL            :Local Permanent Datum
LMF             .                            DF            :Logging Measured From
APD             .m                        37.55            :Elevation of Depth Reference (LMF) Above Permanent Datum
EPD             .m                         0.00            :Elevation of Permanent Datum (PDAT) above Mean Sea Level
EKB             .m                      -999.25            :Elevation of Kelly Bushing Above Permanent Datum
EDF             .m                        37.55            :Elevation of Drill Floor Above Permanent Datum
EGL             .m                       -86.26            :Elevation of Ground Level Above Permanent Datum
ECF             .m                      -999.25            :Elevation of Casing Flange above Permanent Datum
#--------------------------------------------------
~CURVE INFORMATION
#MNEM           .UNIT                  API CODE            :DESCRIPTION
#----            ------          --------------            -----------------------------
DEPT            .m                                         :                                                        Depth Index
DEPTH           .m                                         :(RT)    (DnMWorkflow)           (1in)                   Depth Index
TVDE            .m                                         :(RT)    (DnMWorkflow)           (6in)                   True Vertical Depth
ROP5            .m/h                                       :(RT)    (DRILLING_SURFACE)      (6in)                   Rate of penetration averaged over the last 5 ft (1.5 m)
TAB_RES         .h                                         :        (DV6MT)                 (6in)                   Resistivity Time After Bit
GR              .gAPI                                      :(RT)    (PDX5_675)              (6in)                   Gamma Ray
GR              .gAPI                                      :(RM)    (DV6MT)                 (6in)                   Gamma Ray
P16H            .ohm.m                                     :(RM)    (DV6MT)                 (6in)                   Phase Shift Resistivity 16 inch Spacing at 2 MHz, Environmentally Corrected.
P22H            .ohm.m                                     :(RM)    (DV6MT)                 (6in)                   Phase Shift Resistivity 22 inch Spacing at 2 MHz, Environmentally Corrected.
P28H            .ohm.m                                     :(RM)    (DV6MT)                 (6in)                   Phase Shift Resistivity 28 inch Spacing at 2 MHz, Environmentally Corrected.
P34H            .ohm.m                                     :(RM)    (DV6MT)                 (6in)                   Phase Shift Resistivity 34 inch Spacing at 2 MHz, Environmentally Corrected.
P40H            .ohm.m                                     :(RM)    (DV6MT)                 (6in)                   Phase Shift Resistivity 40 inch Spacing at 2 MHz, Environmentally Corrected.
ROBB            .g/cm3                                     :(RM)    (DV6MT)                 (6in)                   Bulk Density, Bottom
DRHB            .g/cm3                                     :(RM)    (DV6MT)                 (6in)                   Bulk Density Correction, Bottom
TNPH            .V/V                                       :(RM)    (DV6MT)                 (6in)                   Thermal Neutron Porosity (Ratio Method) in Selected Lithology
TNPB_UNC        .ft3/ft3                                   :(RM)    (DV6MT)                 (6in)                   Uncorrected Thermal Neutron Porosity, Bottom (only hole size correction applied)
NER1            .1/s                                       :(RM)    (DV6MT)                 (6in)                   Neutron Near Tube 1 Average Count Rate
FAR1            .1/s                                       :(RM)    (DV6MT)                 (6in)                   Neutron Far Tube 1 Average Count Rate
PEB             .                                          :(RM)    (DV6MT)                 (6in)                   Photoelectric Factor, Bottom
RPM             .c/min                                     :(RT)    (DRILLING_SURFACE)      (6in)                   Rotational Speed
ECD             .lbm/gal                                   :(RM)    (DV6MT)                 (6in)                   Equivalent Circulating Density
DHAP            .psi                                       :(RM)    (DV6MT)                 (6in)                   Downhole Annulus Pressure
DHAT            .degC                                      :(RM)    (DV6MT)                 (6in)                   Downhole Annulus Temperature
UCAV            .in                                        :(RM)    (DV6MT)                 (6in)                   Ultrasonic Caliper Average
#-------------------------------------------------------------
#            DEPT        DEPTH         TVDE         ROP5      TAB_RES           GR           GR         P16H         P22H         P28H         P34H         P40H         ROBB         DRHB         TNPH     TNPB_UNC         NER1         FAR1          PEB          RPM          ECD         DHAP         DHAT         UCAV 
#                  (DnMWorkfl)  (DnMWorkfl)  (DRILLING_)      (DV6MT)   (PDX5_675)      (DV6MT)      (DV6MT)      (DV6MT)      (DV6MT)      (DV6MT)      (DV6MT)      (DV6MT)      (DV6MT)      (DV6MT)      (DV6MT)      (DV6MT)      (DV6MT)      (DV6MT)  (DRILLING_)      (DV6MT)      (DV6MT)      (DV6MT)      (DV6MT) 
#                         (RT)         (RT)         (RT)                      (RT)         (RM)         (RM)         (RM)         (RM)         (RM)         (RM)         (RM)         (RM)         (RM)         (RM)         (RM)         (RM)         (RM)         (RT)         (RM)         (RM)         (RM)         (RM) 
#                        (1in)        (6in)        (6in)        (6in)        (6in)        (6in)        (6in)        (6in)        (6in)        (6in)        (6in)        (6in)        (6in)        (6in)        (6in)        (6in)        (6in)        (6in)        (6in)        (6in)        (6in)        (6in)        (6in) 
~ASCII
# ...
       3366.40000   3366.38794   2672.06708     18.77481      0.72224     36.79575     27.06577     38.67268     40.54907     42.07076     42.90895     43.19628      2.28103      0.02107      0.07627      0.07998   4311.60900    157.53610      2.27166    138.00000     10.82471   4927.00012    103.00000      8.64633
       3366.60000   3366.59155   2672.14348     18.48711      0.72070     36.79575     29.15059     41.46503     43.57524     45.11632     45.89345     46.21171      2.28609      0.01783      0.07956      0.08680   4325.04500    150.40500      2.20467    142.00000     10.82073   4916.99977    103.00000      8.65104
       3366.80000   3366.79395   2672.21983     18.41671      0.72098      -999.25     29.41201     43.38568     45.34490     46.66086     47.27390     47.55874      2.29727      0.02172      0.07803      0.07697   4340.06300    150.35780      2.21790    139.00000     10.82085   4918.00053    103.00000      8.64991
       3367.00000   3366.99829   2672.29614     18.15150      0.71986     35.21332     28.72537     45.24297     46.93320     48.14050     48.71473     48.90852      2.31066      0.02728      0.07989      0.08267   4370.28200    153.33630      2.23066    140.00000     10.82574   4918.99984    103.00000      8.65113
       3367.20000   3367.20337   2672.37241     17.96134      0.71932     38.41295     28.00296     47.18246     48.74696     49.73326     50.00220     49.92381      2.32215      0.02951      0.07593      0.09249   4345.43800    155.02010      2.22584    142.00000     10.82446   4925.99936    103.00000      8.65296
       3367.40000   3367.40356   2672.44863     20.04689      0.71848     35.21332     28.07516     50.85819     51.78143     52.51184     52.53251     51.99284      2.33190      0.03330      0.07526      0.08932   4275.80800    156.46560      2.20025    141.00000     10.82620   4922.99998    103.00000      8.64950
       3367.60000   3367.60791   2672.52481     20.03928      0.71723      -999.25     28.20484     52.75498     53.44145     53.84733     53.86757     53.68982      2.32858      0.03937      0.07683      0.09152   4291.12700    155.49700      2.19951    142.00000     10.82941   4933.00033    103.00000      8.64685
       3367.80000   3367.81055   2672.60095     20.01906      0.71668     41.75169     27.89990     53.28739     54.14181     54.65055     54.68151     54.46679      2.32868      0.04347      0.07317      0.09713   4352.84100    158.82070      2.26115    140.00000     10.82634   4927.99943    103.00000      8.64510
       3368.00000   3367.98877   2672.67704     20.10386      0.71585     40.06493     29.83866     55.17826     55.86040     55.87285     55.72670     55.87374      2.31934      0.03838      0.07560      0.09186   4332.92000    157.14510      2.25396    143.00000     10.82447   4918.00053    103.00000      8.65401
       3368.20000   3368.19385   2672.75309     19.97419      0.71461      -999.25     29.12563     54.52373     55.76961     56.13944     56.05468     56.10976      2.29917      0.03015      0.07316      0.08370   4340.33900    159.67820      2.19198    143.00000     10.83047   4927.00012    103.00000      8.65052
       3368.40000   3368.39575   2672.82910     19.96142      0.71460     35.21332     27.42074     54.53694     55.66055     56.02896     55.96152     55.96982      2.27044      0.02047      0.07190      0.07739   4399.41400    162.36360      2.18021    143.00000     10.82793   4925.00005    103.00000      8.64603
       3368.60000   3368.59692   2672.90506     20.35645      0.71431      -999.25     25.69920     55.44980     56.10956     56.51748     56.58521     56.46925      2.23563      0.00542      0.06378      0.07065   4404.66200    176.12290      2.20263    142.00000     10.83049   4927.00012    103.00000      8.64869
       3368.80000   3368.80200   2672.98098     20.22297      0.71347     35.21332     24.75785     55.65051     56.35559     56.91025     57.09281     56.97326      2.22357      0.00186      0.06628      0.07062   4422.46000    172.66910      2.22159    142.00000     10.83036   4935.99971    103.00000      8.65113
       3369.00000   3369.00439   2673.05686     20.26178      0.71321      -999.25     24.50309     55.77501     56.42860     57.02408     57.27868     57.18696      2.22397      0.00168      0.06120      0.06671   4379.48900    180.43070      2.19793    139.00000     10.82855   4927.00012    103.00000      8.65419
       3369.20000   3369.20947   2673.13269     20.53845      0.71238      -999.25     23.96618     56.37969     56.91954     57.39378     57.55452     57.41916      2.23813      0.00522      0.06245      0.06220   4384.63800    176.20830      2.24028    141.00000     10.82965   4931.99957    103.00000      8.65174
       3369.40000   3369.41138   2673.20848     20.35194      0.71139     35.21332     24.32195     58.21170     57.93003     58.00886     58.20708     58.25675      2.23992      0.00801      0.06124      0.05680   4404.14600    181.44780      2.31195    142.00000     10.83041   4931.99957    103.00000      8.64929
       3369.60000   3369.58911   2673.28423     20.36524      0.86878     35.21332     25.56551     58.53154     58.29685     58.24196     58.29890     58.34106      2.25012      0.01294      0.05909      0.05671   4450.74400    184.60910      2.34382    139.00000     10.82918   4920.00060    103.00000      8.65191
       3369.80000   3369.79102   2673.35993     20.10066      0.86904      -999.25     24.71199     59.23871     58.79798     58.72717     58.78035     58.71566      2.24472      0.01234      0.05706      0.05639   4437.27400    188.56360      2.37500    140.00000     10.82898   4933.99964    103.00000      8.65419
       3370.00000   3369.99585   2673.43559     19.91483      0.86876     33.66567     24.75471     59.15910     58.90610     58.91159     58.96274     58.88736      2.23756      0.00610      0.05607      0.05235   4450.61900    190.12320      2.37706    142.00000     10.82912   4925.99936    103.00000      8.65139
       3370.20000   3370.19971   2673.51120     19.80754      0.86848      -999.25     24.24656     59.29418     59.09381     58.94839     58.83501     58.74027      2.24117      0.00722      0.05591      0.05345   4486.62000    192.13830      2.30573    143.00000     10.83171   4924.00074    103.00000      8.65235
       3370.40000   3370.40308   2673.58677     19.86175      0.86767     35.21332     24.63895     59.49882     59.31310     59.32054     59.21844     58.91210      2.23627      0.00325      0.05562      0.05239   4457.43700    193.66630      2.29761    139.00000     10.82900   4939.00054    103.00000      8.65357
       3370.60000   3370.60522   2673.66230     19.37139      0.86542     35.21332     25.07099     58.94791     59.30202     59.55831     59.69135     59.73772      2.23495      0.00003      0.05560      0.05267   4476.86200    190.88150      2.29396    140.00000     10.83111   4927.99943    103.00000      8.65139
       3370.80000   3370.80786   2673.73779     19.32149      0.86447     33.66567     25.60829     59.04309     59.35697     59.59897     59.71371     59.72512      2.23948      0.00393      0.05648      0.05231   4474.53600    189.22290      2.27018    138.00000     10.83564   4939.00054    103.00000      8.65074
       3371.00000   3371.01270   2673.81323     19.12146      0.86279      -999.25     24.55949     59.68289     59.57481     59.60448     59.73663     59.85537      2.23427      0.00149      0.05479      0.05404   4484.02200    194.76430      2.27146    137.00000     10.83117   4927.99943    103.00000      8.65014
       3371.20000   3371.18921   2673.88863     19.03226      0.86097     32.15281     24.66114     59.13188     59.29367     59.47157     59.67791     59.85925      2.23341     -0.00082      0.05597      0.04950   4436.06100    185.32320      2.28138    139.00000     10.83091   4933.00033    103.00000      8.65331
       3371.40000   3371.39404   2673.96398     18.98993      0.85932      -999.25     24.92173     59.20428     59.50715     59.77457     59.91197     59.91596      2.24262      0.00048      0.05711      0.05689   4401.36000    184.61090      2.26952    139.00000     10.82890   4931.00026    103.00000      8.66152
