~VERSION INFORMATION 
VERS  .    2.0                                     :CWLS Log ASCII Standard - VERSION 2.0
WRAP  .    NO                                      :One Line per Depth step
PROD  .    YY.           :LAS Producer
PROG  .    Horizon LASWriter 4.0.9163.3000         :LAS Program name and version
SOURCE.    Run 2-Drilling                          :Run&Pass Information
CREA  .    06/28/2014                              :LAS Creation date {MM/DD/YYYY}
#--------------------------------------------------
~WELL INFORMATION 
#MNEM           .UNIT                      DATA            :DESCRIPTION
#----            ------          --------------            -----------------------------
STRT            .m                   3200.00000            :START DEPTH
STOP            .m                   3716.80000            :STOP DEPTH
STEP            .m                          0.2            :STEP
NULL            .                       -999.25            :NULL VALUE
COMP            .               XX.:COMPANY
WELL            .                     TBG-B3ST2            :WELL NAME
FLD             .                      Tembungo            :FIELD NAME
RIGN            .                Aquamarine Driller        :Rig Name
RIGTYP          .                       Jack-up            :Rig Type
SON             .                     14MDD0152            :Service Order Number
SRVC            .                  YY            :SERVICE COMPANY
DATE            .                    06/24/2014            :LOG DATE(Composite Date for Composite LAP) (MM/DD/YYYY)
CLAB            .                       County:            :County Label
CNTY            .                                          :COUNTY
SLAB            .                        State:            :State/Province Label
STAT            .                         Sabah            :STATE or PROVINCE
PROV            .                         Sabah            :STATE or PROVINCE
CTRY            .                      Malaysia            :COUNTRY
CONT_REGION     .                          Asia            :Continent Region
SECT            .                                          :Section
TOWN            .                                          :Township
RANG            .                                          :Range
API             .                                          :API NUMBER
UWI             .                     14MDD0152            :UNIQUE WELL ID
LUL             .                Port Side, Main Deck      :Logging Unit Location
LUN             .                   OLU-MA-5062            :Logging Unit Number
LOC             .                Offshore Sabah            :FIELD LOCATION
FL1             .                N 730338.480 m            :Field Location Line 1
FL2             .                E 363301.236 m            :Field Location Line 2
LATI            .deg                  6.6062675            :LATITUDE
LONG            .deg                  115.76330            :LONGITUDE
PDAT            .                           MSL            :Local Permanent Datum
LMF             .                            DF            :Logging Measured From
APD             .m                        37.55            :Elevation of Depth Reference (LMF) Above Permanent Datum
EPD             .m                         0.00            :Elevation of Permanent Datum (PDAT) above Mean Sea Level
EKB             .m                      -999.25            :Elevation of Kelly Bushing Above Permanent Datum
EDF             .m                        37.55            :Elevation of Drill Floor Above Permanent Datum
EGL             .m                       -86.26            :Elevation of Ground Level Above Permanent Datum
ECF             .m                      -999.25            :Elevation of Casing Flange above Permanent Datum
#--------------------------------------------------
~CURVE INFORMATION
#MNEM           .UNIT                  API CODE            :DESCRIPTION
#----            ------          --------------            -----------------------------
DEPT            .m                                         :                                                        Depth Index
DEPTH           .m                                         :(RT)    (DnMWorkflow)           (1in)                   Depth Index
TVDE            .m                                         :(RT)    (DnMWorkflow)           (6in)                   True Vertical Depth
ROP5            .m/h                                       :(RT)    (DRILLING_SURFACE)      (6in)                   Rate of penetration averaged over the last 5 ft (1.5 m)
TAB_RES         .h                                         :        (DV6MT)                 (6in)                   Resistivity Time After Bit
GR              .gAPI                                      :(RT)    (PDX5_675)              (6in)                   Gamma Ray
GR              .gAPI                                      :(RM)    (DV6MT)                 (6in)                   Gamma Ray
P16H            .ohm.m                                     :(RM)    (DV6MT)                 (6in)                   Phase Shift Resistivity 16 inch Spacing at 2 MHz, Environmentally Corrected.
P22H            .ohm.m                                     :(RM)    (DV6MT)                 (6in)                   Phase Shift Resistivity 22 inch Spacing at 2 MHz, Environmentally Corrected.
P28H            .ohm.m                                     :(RM)    (DV6MT)                 (6in)                   Phase Shift Resistivity 28 inch Spacing at 2 MHz, Environmentally Corrected.
P34H            .ohm.m                                     :(RM)    (DV6MT)                 (6in)                   Phase Shift Resistivity 34 inch Spacing at 2 MHz, Environmentally Corrected.
P40H            .ohm.m                                     :(RM)    (DV6MT)                 (6in)                   Phase Shift Resistivity 40 inch Spacing at 2 MHz, Environmentally Corrected.
ROBB            .g/cm3                                     :(RM)    (DV6MT)                 (6in)                   Bulk Density, Bottom
DRHB            .g/cm3                                     :(RM)    (DV6MT)                 (6in)                   Bulk Density Correction, Bottom
TNPH            .V/V                                       :(RM)    (DV6MT)                 (6in)                   Thermal Neutron Porosity (Ratio Method) in Selected Lithology
TNPB_UNC        .ft3/ft3                                   :(RM)    (DV6MT)                 (6in)                   Uncorrected Thermal Neutron Porosity, Bottom (only hole size correction applied)
NER1            .1/s                                       :(RM)    (DV6MT)                 (6in)                   Neutron Near Tube 1 Average Count Rate
FAR1            .1/s                                       :(RM)    (DV6MT)                 (6in)                   Neutron Far Tube 1 Average Count Rate
PEB             .                                          :(RM)    (DV6MT)                 (6in)                   Photoelectric Factor, Bottom
RPM             .c/min                                     :(RT)    (DRILLING_SURFACE)      (6in)                   Rotational Speed
ECD             .lbm/gal                                   :(RM)    (DV6MT)                 (6in)                   Equivalent Circulating Density
DHAP            .psi                                       :(RM)    (DV6MT)                 (6in)                   Downhole Annulus Pressure
DHAT            .degC                                      :(RM)    (DV6MT)                 (6in)                   Downhole Annulus Temperature
UCAV            .in                                        :(RM)    (DV6MT)                 (6in)                   Ultrasonic Caliper Average
#-------------------------------------------------------------
#            DEPT        DEPTH         TVDE         ROP5      TAB_RES           GR           GR         P16H         P22H         P28H         P34H         P40H         ROBB         DRHB         TNPH     TNPB_UNC         NER1         FAR1          PEB          RPM          ECD         DHAP         DHAT         UCAV 
#                  (DnMWorkfl)  (DnMWorkfl)  (DRILLING_)      (DV6MT)   (PDX5_675)      (DV6MT)      (DV6MT)      (DV6MT)      (DV6MT)      (DV6MT)      (DV6MT)      (DV6MT)      (DV6MT)      (DV6MT)      (DV6MT)      (DV6MT)      (DV6MT)      (DV6MT)  (DRILLING_)      (DV6MT)      (DV6MT)      (DV6MT)      (DV6MT) 
#                         (RT)         (RT)         (RT)                      (RT)         (RM)         (RM)         (RM)         (RM)         (RM)         (RM)         (RM)         (RM)         (RM)         (RM)         (RM)         (RM)         (RM)         (RT)         (RM)         (RM)         (RM)         (RM) 
#                        (1in)        (6in)        (6in)        (6in)        (6in)        (6in)        (6in)        (6in)        (6in)        (6in)        (6in)        (6in)        (6in)        (6in)        (6in)        (6in)        (6in)        (6in)        (6in)        (6in)        (6in)        (6in)        (6in) 
~ASCII
       3200.00000   3199.99316   2609.59259     54.40813      0.67042      -999.25     32.77116     29.91404     31.40471     33.38596     34.31197     33.61861      2.25448      0.02867      0.17586      0.16515   3634.80400     86.33197      2.32858    118.00000     10.56694   4716.99998     88.00000      9.01841
       3200.20000   3200.19556   2609.65944     52.94080      0.68071     47.02065     31.77740     27.26270     27.51779     28.65086     30.42962     31.89636      2.26309      0.02649      0.18226      0.16647   3610.29200     84.23419      2.29299    118.00000     10.53127   4668.99974     88.00000      9.10154
       3200.40000   3200.39453   2609.72630     54.86028      0.68555      -999.25     32.77394     25.12836     25.70786     26.65118     28.58365     31.12070      2.25526      0.02668      0.17181      0.16216   3611.71000     84.14790      2.34832    119.00000     10.55312   4683.99954     88.00000      9.13843
       3200.60000   3200.60669   2609.79318     57.30799      0.68903      -999.25     34.36078     21.46904     23.45599     24.82503     26.36117     28.66141      2.26635      0.02911      0.18292      0.17112   3642.80800     85.28303      2.35973    122.00000     10.55336   4704.00025     88.00000      9.10820
       3200.80000   3200.80933   2609.86008     62.85913      0.69611      -999.25     40.29124     16.09392     18.95684     20.61986     21.70383     23.63176      2.36145      0.04248      0.19136      0.16822   3634.95000     80.07629      2.85501    121.00000     10.51019   4672.99988     88.00000      9.19956
       3201.00000   3201.00757   2609.92699     66.05701      0.69961      -999.25     46.21024     14.55278     16.78806     18.24891     19.40586     21.15593      2.43980      0.05551      0.18153      0.15606   3611.51500     78.87933      3.20339    120.00000     10.52440   4664.99960     88.00000      9.35346
       3201.20000   3201.19287   2609.99392     69.43568      0.70293     60.53213     51.60242     14.09254     15.87521     17.57381     19.04283     20.32125      2.50372      0.06366      0.18184      0.18366   3553.93900     76.25268      3.39619    121.00000     10.52592   4679.00009     88.00000      9.46461
       3201.40000   3201.39185   2610.06087     75.27966      0.71043      -999.25     51.92445     13.29000     14.72135     16.26366     17.84462     19.30494      2.51174      0.05783      0.17466      0.14273   3587.66600     78.48512      3.10300    118.00000     10.69842   4755.99918     88.00000      9.30381
       3201.60000   3201.59253   2610.12783     89.17148      0.71432      -999.25     52.05016     13.32327     14.68654     16.22794     17.78163     19.08988      2.50549      0.04548      0.19237      0.17139   3650.52700     77.89027      2.99672    118.00000     10.70657   4756.99994     88.00000      9.33346
       3201.80000   3201.80176   2610.19481     86.99757      0.71779      -999.25     50.38908     13.60606     14.84388     16.18666     17.53255     18.69361      2.49054      0.02641      0.17553      0.14223   3576.26400     79.05805      2.90921    119.00000     10.70776   4757.99925     88.00000      9.43728
       3202.00000   3201.99927   2610.26180     86.01007      0.72113      -999.25     51.65442     13.76751     14.79272     15.92924     17.08572     18.07183      2.47853      0.01546      0.19267      0.17622   3534.01600     72.51460      2.94258    119.00000     10.70808   4756.99994     88.00000      9.59772
       3202.20000   3202.20532   2610.32881     83.33073      0.72779     52.60262     49.46306     14.15146     14.85465     15.91375     16.99821     17.63720      2.40324      0.03026      0.17912      0.17538   3354.30200     74.20350      2.97940    122.00000     10.70541   4759.99932     88.00000      9.81122
       3202.40000   3202.40283   2610.39583     81.90720      0.73112      -999.25     47.36223     14.22691     15.18794     16.25342     17.41697     18.49650      2.35615      0.04589      0.18993      0.18264   3353.23500     72.38537      2.81213    118.00000     10.70166   4757.99925     88.00000      9.84351
       3202.60000   3202.60767   2610.46288     80.35646      0.73446      -999.25     46.28709     14.36365     15.27417     16.27755     17.43211     18.58302      2.33432      0.05728      0.18465      0.18891   3370.19100     72.66648      2.72395    123.00000     10.70499   4755.99918     88.00000      9.86295
       3202.80000   3202.78955   2610.52993     77.20687      0.74126      -999.25     45.78720     14.79785     15.80839     16.67323     17.48948     18.34825      2.34849      0.09181      0.17843      0.16039   3350.56800     74.27677      2.78390    120.00000     10.72482   4764.00091     88.00000      9.82198
       3203.00000   3202.99463   2610.59701     76.18170      0.74458      -999.25     46.98742     14.96650     15.97509     16.85258     17.73023     18.69434      2.33766      0.08685      0.16779      0.16160   3377.96900     76.28365      2.72284    120.00000     10.73035   4767.99960     89.00000      9.75081
       3203.20000   3203.18896   2610.66410     75.59843      0.74833      -999.25     46.51514     14.99105     15.87766     16.80594     17.81007     18.79613      2.32741      0.06873      0.18312      0.15328   3398.93200     76.48259      2.59815    120.00000     10.72850   4773.00050     89.00000      9.64736
       3203.40000   3203.39282   2610.73121     74.48199      0.75529      -999.25     46.54280     15.40105     16.15827     17.06787     18.02035     18.79325      2.36914      0.11736      0.18863      0.17983   3345.21100     71.34567      3.22020    119.00000     10.73936   4771.00043     89.00000      9.82296
       3203.60000   3203.59790   2610.79833     74.01357      0.75876     52.60262     47.04256     15.54886     16.50064     17.49690     18.55486     19.57093      2.40241      0.16650      0.17666      0.18576   3321.50500     72.76811      3.62879    122.00000     10.73058   4767.99960     89.00000      9.86380
       3203.80000   3203.80884   2610.86547     73.86142      0.76251      -999.25     47.01284     15.26205     16.65514     17.81320     18.94204     20.25603      2.38952      0.16745      0.16473      0.13010   3386.33600     79.18015      3.71890    120.00000     10.73297   4773.99981     89.00000      9.75259
       3204.00000   3204.00464   2610.93262     74.55081      0.76973      -999.25     47.77391     15.69662     16.93189     17.94677     18.92006     20.03120      2.33910      0.06518      0.17392      0.15521   3678.30800     85.87177      3.10293    118.00000     10.73310   4769.99967     89.00000      9.33237
       3204.20000   3204.21118   2610.99979     75.07112      0.77363      -999.25     49.75669     15.86180     17.03378     17.99062     18.87070     19.83660      2.33099      0.02390      0.17921      0.17360   3749.21600     86.16492      2.90253    122.00000     10.72749   4769.00036     89.00000      9.20274
       3204.40000   3204.38403   2611.06698     75.58852      0.77738      -999.25     52.12396     16.06541     17.05187     18.10400     19.08851     19.85892      2.31320      0.00631      0.18204      0.16712   3779.79500     82.15849      2.74138    119.00000     10.72998   4764.00091     89.00000      9.17658
       3204.60000   3204.58716   2611.13418     76.24620      0.78501      -999.25     50.57029     16.21562     17.18809     18.19942     19.22656     20.15422      2.29715      0.01664      0.17106      0.15760   3694.14400     85.64889      2.50929    120.00000     10.72730   4771.00043     89.00000      9.23894
       3204.80000   3204.78979   2611.20140     76.56407      0.78891      -999.25     49.74533     16.24263     17.19307     18.25079     19.28051     20.08873      2.30324      0.03046      0.18634      0.17953   3599.48200     80.46707      2.54094    120.00000     10.72394   4765.99953     89.00000      9.30717
       3205.00000   3204.99365   2611.26864     77.84000      0.79335     54.53283     50.03413     16.23201     17.30041     18.29036     19.25771     20.20933      2.31484      0.04637      0.18538      0.18266   3572.16800     78.23532      2.60478    121.00000     10.72396   4765.99953     89.00000      9.40035
