~VERSION INFORMATION 
VERS  .    2.0                                     :CWLS Log ASCII Standard - VERSION 2.0
WRAP  .    NO                                      :One Line per Depth step
PROD  .    YY.           :LAS Producer
PROG  .    Horizon LASWriter 4.0.9163.3000         :LAS Program name and version
SOURCE.    Run 2-Drilling                          :Run&Pass Information
CREA  .    06/28/2014                              :LAS Creation date {MM/DD/YYYY}
#--------------------------------------------------
~WELL INFORMATION 
#MNEM           .UNIT                      DATA            :DESCRIPTION
#----            ------          --------------            -----------------------------
STRT            .m                   3200.00000            :START DEPTH
STOP            .m                   3716.80000            :STOP DEPTH
STEP            .m                          0.2            :STEP
NULL            .                       -999.25            :NULL VALUE
COMP            .               XX.:COMPANY
WELL            .                     TBG-B3ST2            :WELL NAME
FLD             .                      Tembungo            :FIELD NAME
RIGN            .                Aquamarine Driller        :Rig Name
RIGTYP          .                       Jack-up            :Rig Type
SON             .                     14MDD0152            :Service Order Number
SRVC            .                  YY            :SERVICE COMPANY
DATE            .                    06/24/2014            :LOG DATE(Composite Date for Composite LAP) (MM/DD/YYYY)
CLAB            .                       County:            :County Label
CNTY            .                                          :COUNTY
SLAB            .                        State:            :State/Province Label
STAT            .                         Sabah            :STATE or PROVINCE
PROV            .                         Sabah            :STATE or PROVINCE
CTRY            .                      Malaysia            :COUNTRY
CONT_REGION     .                          Asia            :Continent Region
SECT            .                                          :Section
TOWN            .                                          :Township
RANG            .                                          :Range
API             .                                          :API NUMBER
UWI             .                     14MDD0152            :UNIQUE WELL ID
LUL             .                Port Side, Main Deck      :Logging Unit Location
LUN             .                   OLU-MA-5062            :Logging Unit Number
LOC             .                Offshore Sabah            :FIELD LOCATION
FL1             .                N 730338.480 m            :Field Location Line 1
FL2             .                E 363301.236 m            :Field Location Line 2
LATI            .deg                  6.6062675            :LATITUDE
LONG            .deg                  115.76330            :LONGITUDE
PDAT            .                           MSL            :Local Permanent Datum
LMF             .                            DF            :Logging Measured From
APD             .m                        37.55            :Elevation of Depth Reference (LMF) Above Permanent Datum
EPD             .m                         0.00            :Elevation of Permanent Datum (PDAT) above Mean Sea Level
EKB             .m                      -999.25            :Elevation of Kelly Bushing Above Permanent Datum
EDF             .m                        37.55            :Elevation of Drill Floor Above Permanent Datum
EGL             .m                       -86.26            :Elevation of Ground Level Above Permanent Datum
ECF             .m                      -999.25            :Elevation of Casing Flange above Permanent Datum
#--------------------------------------------------
~CURVE INFORMATION
#MNEM           .UNIT                  API CODE            :DESCRIPTION
#----            ------          --------------            -----------------------------
DEPT            .m                                         :                                                        Depth Index
DEPTH           .m                                         :(RT)    (DnMWorkflow)           (1in)                   Depth Index
TVDE            .m                                         :(RT)    (DnMWorkflow)           (6in)                   True Vertical Depth
ROP5            .m/h                                       :(RT)    (DRILLING_SURFACE)      (6in)                   Rate of penetration averaged over the last 5 ft (1.5 m)
TAB_RES         .h                                         :        (DV6MT)                 (6in)                   Resistivity Time After Bit
GR              .gAPI                                      :(RT)    (PDX5_675)              (6in)                   Gamma Ray
GR              .gAPI                                      :(RM)    (DV6MT)                 (6in)                   Gamma Ray
P16H            .ohm.m                                     :(RM)    (DV6MT)                 (6in)                   Phase Shift Resistivity 16 inch Spacing at 2 MHz, Environmentally Corrected.
P22H            .ohm.m                                     :(RM)    (DV6MT)                 (6in)                   Phase Shift Resistivity 22 inch Spacing at 2 MHz, Environmentally Corrected.
P28H            .ohm.m                                     :(RM)    (DV6MT)                 (6in)                   Phase Shift Resistivity 28 inch Spacing at 2 MHz, Environmentally Corrected.
P34H            .ohm.m                                     :(RM)    (DV6MT)                 (6in)                   Phase Shift Resistivity 34 inch Spacing at 2 MHz, Environmentally Corrected.
P40H            .ohm.m                                     :(RM)    (DV6MT)                 (6in)                   Phase Shift Resistivity 40 inch Spacing at 2 MHz, Environmentally Corrected.
ROBB            .g/cm3                                     :(RM)    (DV6MT)                 (6in)                   Bulk Density, Bottom
DRHB            .g/cm3                                     :(RM)    (DV6MT)                 (6in)                   Bulk Density Correction, Bottom
TNPH            .V/V                                       :(RM)    (DV6MT)                 (6in)                   Thermal Neutron Porosity (Ratio Method) in Selected Lithology
TNPB_UNC        .ft3/ft3                                   :(RM)    (DV6MT)                 (6in)                   Uncorrected Thermal Neutron Porosity, Bottom (only hole size correction applied)
NER1            .1/s                                       :(RM)    (DV6MT)                 (6in)                   Neutron Near Tube 1 Average Count Rate
FAR1            .1/s                                       :(RM)    (DV6MT)                 (6in)                   Neutron Far Tube 1 Average Count Rate
PEB             .                                          :(RM)    (DV6MT)                 (6in)                   Photoelectric Factor, Bottom
RPM             .c/min                                     :(RT)    (DRILLING_SURFACE)      (6in)                   Rotational Speed
ECD             .lbm/gal                                   :(RM)    (DV6MT)                 (6in)                   Equivalent Circulating Density
DHAP            .psi                                       :(RM)    (DV6MT)                 (6in)                   Downhole Annulus Pressure
DHAT            .degC                                      :(RM)    (DV6MT)                 (6in)                   Downhole Annulus Temperature
UCAV            .in                                        :(RM)    (DV6MT)                 (6in)                   Ultrasonic Caliper Average
#-------------------------------------------------------------
#            DEPT        DEPTH         TVDE         ROP5      TAB_RES           GR           GR         P16H         P22H         P28H         P34H         P40H         ROBB         DRHB         TNPH     TNPB_UNC         NER1         FAR1          PEB          RPM          ECD         DHAP         DHAT         UCAV 
#                  (DnMWorkfl)  (DnMWorkfl)  (DRILLING_)      (DV6MT)   (PDX5_675)      (DV6MT)      (DV6MT)      (DV6MT)      (DV6MT)      (DV6MT)      (DV6MT)      (DV6MT)      (DV6MT)      (DV6MT)      (DV6MT)      (DV6MT)      (DV6MT)      (DV6MT)  (DRILLING_)      (DV6MT)      (DV6MT)      (DV6MT)      (DV6MT) 
#                         (RT)         (RT)         (RT)                      (RT)         (RM)         (RM)         (RM)         (RM)         (RM)         (RM)         (RM)         (RM)         (RM)         (RM)         (RM)         (RM)         (RM)         (RT)         (RM)         (RM)         (RM)         (RM) 
#                        (1in)        (6in)        (6in)        (6in)        (6in)        (6in)        (6in)        (6in)        (6in)        (6in)        (6in)        (6in)        (6in)        (6in)        (6in)        (6in)        (6in)        (6in)        (6in)        (6in)        (6in)        (6in)        (6in) 
~ASCII
# ...
       3231.20000   3231.21118   2620.23245     30.21033      0.82169     73.46976     75.66144      5.83079      6.26232      6.70419      7.17209      7.67234      2.42385      0.00240      0.19239      0.17271   3943.90800     82.91154      2.78563    136.00000     10.82253   4826.00019     94.00000      8.66385
       3231.40000   3231.38623   2620.30259     30.73002      0.82697      -999.25     75.51296      5.78487      6.21504      6.65152      7.11104      7.59940      2.41571      0.00750      0.19941      0.17053   3951.88200     81.56077      2.78983    141.00000     10.81739   4822.99936     94.00000      8.65519
       3231.60000   3231.59106   2620.37277     30.97689      0.83543     80.40810     75.21333      5.72948      6.13638      6.56635      7.01793      7.46651      2.41130      0.01198      0.20459      0.16449   3885.03900     76.79011      2.73919    136.00000     10.64869   4773.00050     94.00000      8.71104
       3231.80000   3231.79590   2620.44298     31.08073      0.84059      -999.25     76.82547      5.71876      6.11473      6.54239      6.98644      7.40894      2.40358      0.00250      0.18919      0.16812   3872.09500     80.85700      2.70093    141.00000     10.70894   4821.00074     94.00000      8.73313
       3232.00000   3231.99927   2620.51322     30.95935      0.84529     82.79043     75.82962      5.72589      6.11053      6.52376      6.94442      7.33745      2.40962     -0.00023      0.19662      0.16972   3882.27900     80.68598      2.61620    138.00000     10.78755   4813.99977     94.00000      8.72548
       3232.20000   3232.20190   2620.58350     30.67630      0.85489     82.79043     75.84944      5.81209      6.16089      6.54863      6.94665      7.30471      2.41789      0.00010      0.19544      0.18835   3894.20000     82.79025      2.54114    137.00000     10.80952   4822.99936     94.00000      8.67823
       3232.40000   3232.40454   2620.65381     30.03369      0.86001      -999.25     74.99316      5.85038      6.19420      6.57508      6.95959      7.29791      2.41801      0.00017      0.18626      0.17498   3943.39600     81.17181      2.54412    142.00000     10.81083   4826.00019     94.00000      8.68476
       3232.60000   3232.60620   2620.72416     29.35265      0.86626      -999.25     75.12540      5.88458      6.21662      6.58210      6.95608      7.29301      2.42332      0.00815      0.18830      0.16712   3935.04900     82.58993      2.65813    136.00000     10.78838   4802.00079     94.00000      8.67796
       3232.80000   3232.80933   2620.79454     28.22019      0.87694     73.46976     74.07483      5.86937      6.16430      6.48207      6.83100      7.18413      2.44193      0.06034      0.19271      0.17051   3952.65100     81.58318      2.94104    136.00000     10.78299   4811.00039     94.00000      8.66244
       3233.00000   3232.98657   2620.86495     27.68954      0.88376      -999.25     73.16278      5.88883      6.17563      6.48876      6.82540      7.15341      2.42987      0.06008      0.18869      0.16278   3912.99100     81.77276      2.77998    142.00000     10.78614   4817.00060     94.00000      8.68774
       3233.20000   3233.19287   2620.93540     27.30396      0.89072      -999.25     72.36984      5.94087      6.21002      6.50584      6.83051      7.15116      2.41763      0.05031      0.18942      0.16026   3936.38200     83.44041      2.56222    142.00000     10.79017   4815.99984     94.00000      8.68867
       3233.40000   3233.39600   2621.00588     26.68773      0.90583      -999.25     69.61933      5.96242      6.20646      6.47574      6.78752      7.11307      2.41404      0.05133      0.18414      0.17189   3938.06300     83.95200      2.39721    141.00000     10.77807   4805.99948     94.00000      8.63924
       3233.60000   3233.59619   2621.07640     26.41858      0.91251     85.20754     71.21983      5.98267      6.24282      6.52469      6.83538      7.14703      2.42351      0.06389      0.18171      0.16444   3949.25700     84.60135      2.39735    141.00000     10.77574   4815.00053     94.00000      8.64269
       3233.80000   3233.80200   2621.14694     26.02483      0.91861      -999.25     72.34238      5.99101      6.25391      6.53148      6.83738      7.15159      2.43096      0.08162      0.18516      0.16314   3983.80600     82.58684      2.49196    137.00000     10.78646   4819.99998     94.00000      8.63609
       3234.00000   3234.00562   2621.21753     25.59281      0.92488     73.46976     70.34381      5.96118      6.24014      6.51699      6.82103      7.15217      2.43049      0.09353      0.18725      0.17993   3967.11600     84.18742      2.59031    140.00000     10.79308   4819.00067     94.00000      8.63973
       3234.20000   3234.20850   2621.28814     24.98036      0.94489      -999.25     71.47719      5.91300      6.21695      6.50888      6.82011      7.16222      2.40898      0.06811      0.19082      0.16827   3957.80200     84.28188      2.50318    138.00000     10.78761   4811.00039     94.00000      8.67069
       3234.40000   3234.41113   2621.35879     24.79813      0.94946      -999.25     72.39957      5.90650      6.21466      6.50780      6.82652      7.18663      2.41004      0.04889      0.17810      0.16064   4009.89800     86.64948      2.39059    140.00000     10.78515   4813.99977     94.00000      8.67569
       3234.60000   3234.58887   2621.42948     24.66534      0.95224     69.01810     71.31377      5.91745      6.23934      6.54478      6.88149      7.26647      2.40598      0.03739      0.17611      0.15447   4025.37700     87.69826      2.38110    142.00000     10.79042   4815.99984     94.00000      8.66448
       3234.80000   3234.79150   2621.50020     24.36924      0.96154     71.22655     72.64499      5.93605      6.28435      6.61406      6.95921      7.33566      2.42370      0.05083      0.18033      0.14188   4038.91700     86.26495      2.43898    137.00000     10.78616   4811.99970     94.00000      8.65041
       3235.00000   3234.99414   2621.57095     24.08677      0.96264      -999.25     73.03492      5.96749      6.31942      6.65954      7.01617      7.39734      2.43219      0.06462      0.18474      0.15875   4051.00400     84.59063      2.49704    139.00000     10.78998   4817.99991     95.00000      8.64379
       3235.20000   3235.19629   2621.64173     23.87771      0.96333     71.22655     73.29313      6.02760      6.39057      6.74823      7.11606      7.50228      2.43245      0.07191      0.17383      0.16407   4047.39000     89.54449      2.54168    142.00000     10.79602   4819.00067     95.00000      8.64685
       3235.40000   3235.40112   2621.71255     23.43403      0.97293     80.40810     73.08801      6.21486      6.59569      6.97711      7.36316      7.77487      2.41019      0.05195      0.16954      0.14810   4034.78700     91.26305      2.40790    142.00000     10.78975   4811.00039     95.00000      8.68369
       3235.60000   3235.60376   2621.78341     23.17462      0.97293      -999.25     74.12434      6.27630      6.67683      7.07169      7.47539      7.91454      2.40257      0.03829      0.17184      0.15574   3995.04100     85.09738      2.40798    141.00000     10.78527   4813.00046     95.00000      8.69217
       3235.80000   3235.80640   2621.85429     23.17534      0.97295     80.40810     74.16370      6.36124      6.77512      7.17035      7.59199      8.07709      2.39663      0.02977      0.16342      0.14025   4019.60800     91.39130      2.38274    142.00000     10.78015   4809.99963     95.00000      8.67151
       3236.00000   3236.01196   2621.92522     22.53778      1.45432     78.06054     73.54384      6.45144      6.89121      7.29015      7.72122      8.23873      2.38535      0.02354      0.19029      0.16215   4127.61700     89.79349      2.44720    141.00000     10.77728   4811.99970     95.00000      8.68095
       3236.20000   3236.18799   2621.99617     22.09064      1.45517      -999.25     74.62029      6.48258      6.94941      7.37450      7.83307      8.37758      2.38225      0.01797      0.17860      0.15861   4011.30500     88.68087      2.49080    138.00000     10.78174   4813.99977     95.00000      8.67925
