~VERSION INFORMATION 
VERS  .    2.0                                     :CWLS Log ASCII Standard - VERSION 2.0
WRAP  .    NO                                      :One Line per Depth step
PROD  .    YY.           :LAS Producer
PROG  .    Horizon LASWriter 4.0.9163.3000         :LAS Program name and version
SOURCE.    Run 2-Drilling                          :Run&Pass Information
CREA  .    06/28/2014                              :LAS Creation date {MM/DD/YYYY}
#--------------------------------------------------
~WELL INFORMATION 
#MNEM           .UNIT                      DATA            :DESCRIPTION
#----            ------          --------------            -----------------------------
STRT            .m                   3200.00000            :START DEPTH
STOP            .m                   3716.80000            :STOP DEPTH
STEP            .m                          0.2            :STEP
NULL            .                       -999.25            :NULL VALUE
COMP            .               XX.:COMPANY
WELL            .                     TBG-B3ST2            :WELL NAME
FLD             .                      Tembungo            :FIELD NAME
RIGN            .                Aquamarine Driller        :Rig Name
RIGTYP          .                       Jack-up            :Rig Type
SON             .                     14MDD0152            :Service Order Number
SRVC            .                  YY            :SERVICE COMPANY
DATE            .                    06/24/2014            :LOG DATE(Composite Date for Composite LAP) (MM/DD/YYYY)
CLAB            .                       County:            :County Label
CNTY            .                                          :COUNTY
SLAB            .                        State:            :State/Province Label
STAT            .                         Sabah            :STATE or PROVINCE
PROV            .                         Sabah            :STATE or PROVINCE
CTRY            .                      Malaysia            :COUNTRY
CONT_REGION     .                          Asia            :Continent Region
SECT            .                                          :Section
TOWN            .                                          :Township
RANG            .                                          :Range
API             .                                          :API NUMBER
UWI             .                     14MDD0152            :UNIQUE WELL ID
LUL             .                Port Side, Main Deck      :Logging Unit Location
LUN             .                   OLU-MA-5062            :Logging Unit Number
LOC             .                Offshore Sabah            :FIELD LOCATION
FL1             .                N 730338.480 m            :Field Location Line 1
FL2             .                E 363301.236 m            :Field Location Line 2
LATI            .deg                  6.6062675            :LATITUDE
LONG            .deg                  115.76330            :LONGITUDE
PDAT            .                           MSL            :Local Permanent Datum
LMF             .                            DF            :Logging Measured From
APD             .m                        37.55            :Elevation of Depth Reference (LMF) Above Permanent Datum
EPD             .m                         0.00            :Elevation of Permanent Datum (PDAT) above Mean Sea Level
EKB             .m                      -999.25            :Elevation of Kelly Bushing Above Permanent Datum
EDF             .m                        37.55            :Elevation of Drill Floor Above Permanent Datum
EGL             .m                       -86.26            :Elevation of Ground Level Above Permanent Datum
ECF             .m                      -999.25            :Elevation of Casing Flange above Permanent Datum
#--------------------------------------------------
~CURVE INFORMATION
#MNEM           .UNIT                  API CODE            :DESCRIPTION
#----            ------          --------------            -----------------------------
DEPT            .m                                         :                                                        Depth Index
DEPTH           .m                                         :(RT)    (DnMWorkflow)           (1in)                   Depth Index
TVDE            .m                                         :(RT)    (DnMWorkflow)           (6in)                   True Vertical Depth
ROP5            .m/h                                       :(RT)    (DRILLING_SURFACE)      (6in)                   Rate of penetration averaged over the last 5 ft (1.5 m)
TAB_RES         .h                                         :        (DV6MT)                 (6in)                   Resistivity Time After Bit
GR              .gAPI                                      :(RT)    (PDX5_675)              (6in)                   Gamma Ray
GR              .gAPI                                      :(RM)    (DV6MT)                 (6in)                   Gamma Ray
P16H            .ohm.m                                     :(RM)    (DV6MT)                 (6in)                   Phase Shift Resistivity 16 inch Spacing at 2 MHz, Environmentally Corrected.
P22H            .ohm.m                                     :(RM)    (DV6MT)                 (6in)                   Phase Shift Resistivity 22 inch Spacing at 2 MHz, Environmentally Corrected.
P28H            .ohm.m                                     :(RM)    (DV6MT)                 (6in)                   Phase Shift Resistivity 28 inch Spacing at 2 MHz, Environmentally Corrected.
P34H            .ohm.m                                     :(RM)    (DV6MT)                 (6in)                   Phase Shift Resistivity 34 inch Spacing at 2 MHz, Environmentally Corrected.
P40H            .ohm.m                                     :(RM)    (DV6MT)                 (6in)                   Phase Shift Resistivity 40 inch Spacing at 2 MHz, Environmentally Corrected.
ROBB            .g/cm3                                     :(RM)    (DV6MT)                 (6in)                   Bulk Density, Bottom
DRHB            .g/cm3                                     :(RM)    (DV6MT)                 (6in)                   Bulk Density Correction, Bottom
TNPH            .V/V                                       :(RM)    (DV6MT)                 (6in)                   Thermal Neutron Porosity (Ratio Method) in Selected Lithology
TNPB_UNC        .ft3/ft3                                   :(RM)    (DV6MT)                 (6in)                   Uncorrected Thermal Neutron Porosity, Bottom (only hole size correction applied)
NER1            .1/s                                       :(RM)    (DV6MT)                 (6in)                   Neutron Near Tube 1 Average Count Rate
FAR1            .1/s                                       :(RM)    (DV6MT)                 (6in)                   Neutron Far Tube 1 Average Count Rate
PEB             .                                          :(RM)    (DV6MT)                 (6in)                   Photoelectric Factor, Bottom
RPM             .c/min                                     :(RT)    (DRILLING_SURFACE)      (6in)                   Rotational Speed
ECD             .lbm/gal                                   :(RM)    (DV6MT)                 (6in)                   Equivalent Circulating Density
DHAP            .psi                                       :(RM)    (DV6MT)                 (6in)                   Downhole Annulus Pressure
DHAT            .degC                                      :(RM)    (DV6MT)                 (6in)                   Downhole Annulus Temperature
UCAV            .in                                        :(RM)    (DV6MT)                 (6in)                   Ultrasonic Caliper Average
#-------------------------------------------------------------
#            DEPT        DEPTH         TVDE         ROP5      TAB_RES           GR           GR         P16H         P22H         P28H         P34H         P40H         ROBB         DRHB         TNPH     TNPB_UNC         NER1         FAR1          PEB          RPM          ECD         DHAP         DHAT         UCAV 
#                  (DnMWorkfl)  (DnMWorkfl)  (DRILLING_)      (DV6MT)   (PDX5_675)      (DV6MT)      (DV6MT)      (DV6MT)      (DV6MT)      (DV6MT)      (DV6MT)      (DV6MT)      (DV6MT)      (DV6MT)      (DV6MT)      (DV6MT)      (DV6MT)      (DV6MT)  (DRILLING_)      (DV6MT)      (DV6MT)      (DV6MT)      (DV6MT) 
#                         (RT)         (RT)         (RT)                      (RT)         (RM)         (RM)         (RM)         (RM)         (RM)         (RM)         (RM)         (RM)         (RM)         (RM)         (RM)         (RM)         (RM)         (RT)         (RM)         (RM)         (RM)         (RM) 
#                        (1in)        (6in)        (6in)        (6in)        (6in)        (6in)        (6in)        (6in)        (6in)        (6in)        (6in)        (6in)        (6in)        (6in)        (6in)        (6in)        (6in)        (6in)        (6in)        (6in)        (6in)        (6in)        (6in) 
~ASCII
# ...
       3600.40000   3600.39868   2744.81309     19.75201      0.74321     54.53283     55.92659     16.34286     17.67230     18.95512     20.24507     21.50465      2.52233      0.02091      0.13683      0.12064   4298.50000    106.60330      2.92182    133.00000     10.87768   5084.99988    109.00000      8.73306
       3600.60000   3600.60352   2744.86248     19.62053      0.74266      -999.25     55.00890     16.31367     17.63521     18.93234     20.21666     21.42146      2.53384      0.03498      0.12675      0.11438   4232.47200    109.19550      2.94452    131.00000     10.87234   5076.00029    109.00000      8.72703
       3600.80000   3600.80542   2744.91185     19.50599      0.74222     54.53283     53.77377     16.29409     17.57642     18.84856     20.11821     21.29582      2.51579      0.02834      0.12948      0.12706   4150.92000    106.63070      2.97139    130.00000     10.87290   5082.00050    109.00000      8.72491
       3601.00000   3601.00903   2744.96122     19.59098      0.74182     56.49781     50.27835     16.33286     17.60616     18.84488     20.06887     21.21104      2.47552     -0.00047      0.14251      0.12078   4337.08300    107.26750      2.91756    133.00000     10.87863   5084.00057    109.00000      8.72249
       3601.20000   3601.21021   2745.01057     19.70017      0.74181      -999.25     49.25301     16.33499     17.57862     18.82698     20.07609     21.21591      2.46549     -0.00543      0.13087      0.11030   4217.42400    107.07970      2.82574    128.00000     10.87786   5084.00057    109.00000      8.74048
       3601.40000   3601.39038   2745.05992     19.85271      0.74225     58.49759     49.71313     16.35596     17.60713     18.83566     20.04510     21.15241      2.44582     -0.00752      0.13676      0.12776   4213.13000    106.76920      2.76069    132.00000     10.88230   5082.99981    109.00000      8.73795
       3601.60000   3601.59204   2745.10925     18.90592      0.73751     52.60262     51.52055     16.48844     17.71711     18.90447     20.06569     21.13819      2.42797      0.01979      0.13941      0.13786   4232.27900    105.64080      2.76907    133.00000     10.88129   5082.00050    109.00000      8.73017
       3601.80000   3601.79541   2745.15857     19.01884      0.73778      -999.25     51.30789     16.54144     17.76447     18.96245     20.14736     21.24476      2.42093      0.03753      0.13476      0.13703   4193.85700    109.15220      2.74645    129.00000     10.87972   5087.99926    109.00000      8.72164
       3602.00000   3601.99951   2745.20789     19.14572      0.73779     52.60262     50.41355     16.65829     17.86996     19.05892     20.23347     21.32160      2.41174      0.04365      0.13988      0.13903   4227.59900    106.38560      2.63232    129.00000     10.88078   5087.99926    109.00000      8.71533
       3602.20000   3602.20166   2745.25719     19.27930      0.73778      -999.25     48.76301     16.69179     17.92391     19.11541     20.27774     21.36070      2.39792      0.04247      0.14506      0.12423   4225.34600    105.75570      2.56429    132.00000     10.88048   5085.99919    109.00000      8.71306
       3602.40000   3602.40649   2745.30648     19.50160      0.73875      -999.25     48.99709     16.79586     17.93106     19.05181     20.18190     21.23749      2.39601      0.04021      0.14423      0.13103   4251.04500    104.73710      2.44731    132.00000     10.88233   5091.00009    109.00000      8.71445
       3602.60000   3602.60913   2745.35576     19.49282      0.73918     54.53283     49.55973     16.81344     17.91202     19.02024     20.15431     21.20337      2.40044      0.04673      0.13800      0.13050   4210.00000    107.70640      2.41983    129.00000     10.87683   5090.00078    109.00000      8.71009
       3602.80000   3602.81299   2745.40503     19.49901      0.73958     54.53283     51.30509     16.76319     17.87373     18.98800     20.11125     21.13522      2.40637      0.06171      0.13706      0.13645   4217.38100    108.74200      2.45219    133.00000     10.88218   5084.00057    109.00000      8.70575
       3603.00000   3602.98950   2745.45429     19.50420      0.73974     54.53283     49.80773     16.68635     17.79970     18.90294     20.02301     21.06161      2.39579      0.05776      0.13495      0.12833   4202.22600    105.56300      2.39644    127.00000     10.88372   5087.99926    109.00000      8.70869
       3603.20000   3603.19165   2745.50354     20.78647      0.74029      -999.25     49.54288     16.68702     17.77447     18.83144     19.90226     20.91357      2.38712      0.04706      0.14916      0.14082   4238.16700    102.17810      2.34797    137.00000     10.88265   5085.99919    109.00000      8.71573
       3603.40000   3603.39648   2745.55278     20.77810      0.74071     58.49759     49.65140     16.61676     17.70716     18.76837     19.81985     20.78962      2.38753      0.04522      0.14281      0.13854   4206.93900    103.69220      2.32522    133.00000     10.88785   5087.99926    109.00000      8.71987
       3603.60000   3603.60132   2745.60201     20.77002      0.74250     52.60262     49.72065     16.62436     17.70979     18.75456     19.82493     20.86304      2.38316      0.04902      0.14652      0.13432   4261.35500    105.40450      2.32859    136.00000     10.89076   5092.00085    109.00000      8.70834
       3603.80000   3603.80347   2745.65123     20.77402      0.74278      -999.25     49.19912     16.55943     17.66926     18.73667     19.81749     20.85561      2.38990      0.05248      0.14116      0.12583   4221.56400    106.81210      2.33931    133.00000     10.88384   5085.99919    109.00000      8.71253
       3604.00000   3604.00610   2745.70044     20.78130      0.74279     58.49759     49.75636     16.52326     17.64867     18.72065     19.77239     20.75992      2.38436      0.05185      0.13692      0.13046   4178.25700    107.07870      2.36236    137.00000     10.88497   5084.00057    109.00000      8.71550
       3604.20000   3604.20996   2745.74964     20.78655      0.74361     54.53283     50.49516     16.52834     17.64392     18.68928     19.70907     20.67991      2.37764      0.04022      0.15307      0.14281   4216.17600    104.29270      2.29572    133.00000     10.88742   5089.00002    109.00000      8.72327
       3604.40000   3604.41211   2745.79882     20.76906      0.74472      -999.25     49.19632     16.54409     17.64037     18.70292     19.77841     20.80315      2.37966      0.03946      0.14193      0.11748   4267.43000    108.04860      2.29318    138.00000     10.88359   5089.00002    109.00000      8.71969
       3604.60000   3604.59131   2745.84800     20.78940      0.74557     58.49759     48.07095     16.57851     17.68751     18.74825     19.80551     20.80891      2.37965      0.04137      0.14319      0.12071   4264.96500    107.03560      2.30460    133.00000     10.87881   5084.99988    109.00000      8.71602
       3604.80000   3604.79346   2745.89717     20.36254      0.74433      -999.25     50.73882     16.56622     17.73092     18.82182     19.88229     20.88480      2.37901      0.04676      0.13739      0.12479   4199.45800    107.06390      2.34654    137.00000     10.88708   5091.00009    109.00000      8.72091
       3605.00000   3604.99658   2745.94632     19.60446      0.74210      -999.25     50.81842     16.55750     17.72731     18.82685     19.89506     20.90003      2.37212      0.04111      0.13672      0.12990   4261.73200    108.18070      2.37532    134.00000     10.88851   5087.99926    109.00000      8.71969
       3605.20000   3605.19873   2745.99547     19.61148      0.74305     52.60262     49.24768     16.55300     17.73101     18.80758     19.85030     20.86280      2.37000      0.03231      0.14619      0.13599   4236.35400    107.31140      2.32473    133.00000     10.88744   5095.00023    109.00000      8.71865
       3605.40000   3605.40430   2746.04460     19.61171      0.74389      -999.25     48.49931     16.56883     17.72436     18.80610     19.85463     20.84343      2.37102      0.03318      0.13597      0.13590   4237.04800    111.93400      2.31370    138.00000     10.88210   5090.00078    109.00000      8.71961
