~VERSION INFORMATION 
VERS  .    2.0                                     :CWLS Log ASCII Standard - VERSION 2.0
WRAP  .    NO                                      :One Line per Depth step
PROD  .    YY.           :LAS Producer
PROG  .    Horizon LASWriter 4.0.9163.3000         :LAS Program name and version
SOURCE.    Run 2-Drilling                          :Run&Pass Information
CREA  .    06/28/2014                              :LAS Creation date {MM/DD/YYYY}
#--------------------------------------------------
~WELL INFORMATION 
#MNEM           .UNIT                      DATA            :DESCRIPTION
#----            ------          --------------            -----------------------------
STRT            .m                   3200.00000            :START DEPTH
STOP            .m                   3716.80000            :STOP DEPTH
STEP            .m                          0.2            :STEP
NULL            .                       -999.25            :NULL VALUE
COMP            .               XX.:COMPANY
WELL            .                     TBG-B3ST2            :WELL NAME
FLD             .                      Tembungo            :FIELD NAME
RIGN            .                Aquamarine Driller        :Rig Name
RIGTYP          .                       Jack-up            :Rig Type
SON             .                     14MDD0152            :Service Order Number
SRVC            .                  YY            :SERVICE COMPANY
DATE            .                    06/24/2014            :LOG DATE(Composite Date for Composite LAP) (MM/DD/YYYY)
CLAB            .                       County:            :County Label
CNTY            .                                          :COUNTY
SLAB            .                        State:            :State/Province Label
STAT            .                         Sabah            :STATE or PROVINCE
PROV            .                         Sabah            :STATE or PROVINCE
CTRY            .                      Malaysia            :COUNTRY
CONT_REGION     .                          Asia            :Continent Region
SECT            .                                          :Section
TOWN            .                                          :Township
RANG            .                                          :Range
API             .                                          :API NUMBER
UWI             .                     14MDD0152            :UNIQUE WELL ID
LUL             .                Port Side, Main Deck      :Logging Unit Location
LUN             .                   OLU-MA-5062            :Logging Unit Number
LOC             .                Offshore Sabah            :FIELD LOCATION
FL1             .                N 730338.480 m            :Field Location Line 1
FL2             .                E 363301.236 m            :Field Location Line 2
LATI            .deg                  6.6062675            :LATITUDE
LONG            .deg                  115.76330            :LONGITUDE
PDAT            .                           MSL            :Local Permanent Datum
LMF             .                            DF            :Logging Measured From
APD             .m                        37.55            :Elevation of Depth Reference (LMF) Above Permanent Datum
EPD             .m                         0.00            :Elevation of Permanent Datum (PDAT) above Mean Sea Level
EKB             .m                      -999.25            :Elevation of Kelly Bushing Above Permanent Datum
EDF             .m                        37.55            :Elevation of Drill Floor Above Permanent Datum
EGL             .m                       -86.26            :Elevation of Ground Level Above Permanent Datum
ECF             .m                      -999.25            :Elevation of Casing Flange above Permanent Datum
#--------------------------------------------------
~CURVE INFORMATION
#MNEM           .UNIT                  API CODE            :DESCRIPTION
#----            ------          --------------            -----------------------------
DEPT            .m                                         :                                                        Depth Index
DEPTH           .m                                         :(RT)    (DnMWorkflow)           (1in)                   Depth Index
TVDE            .m                                         :(RT)    (DnMWorkflow)           (6in)                   True Vertical Depth
ROP5            .m/h                                       :(RT)    (DRILLING_SURFACE)      (6in)                   Rate of penetration averaged over the last 5 ft (1.5 m)
TAB_RES         .h                                         :        (DV6MT)                 (6in)                   Resistivity Time After Bit
GR              .gAPI                                      :(RT)    (PDX5_675)              (6in)                   Gamma Ray
GR              .gAPI                                      :(RM)    (DV6MT)                 (6in)                   Gamma Ray
P16H            .ohm.m                                     :(RM)    (DV6MT)                 (6in)                   Phase Shift Resistivity 16 inch Spacing at 2 MHz, Environmentally Corrected.
P22H            .ohm.m                                     :(RM)    (DV6MT)                 (6in)                   Phase Shift Resistivity 22 inch Spacing at 2 MHz, Environmentally Corrected.
P28H            .ohm.m                                     :(RM)    (DV6MT)                 (6in)                   Phase Shift Resistivity 28 inch Spacing at 2 MHz, Environmentally Corrected.
P34H            .ohm.m                                     :(RM)    (DV6MT)                 (6in)                   Phase Shift Resistivity 34 inch Spacing at 2 MHz, Environmentally Corrected.
P40H            .ohm.m                                     :(RM)    (DV6MT)                 (6in)                   Phase Shift Resistivity 40 inch Spacing at 2 MHz, Environmentally Corrected.
ROBB            .g/cm3                                     :(RM)    (DV6MT)                 (6in)                   Bulk Density, Bottom
DRHB            .g/cm3                                     :(RM)    (DV6MT)                 (6in)                   Bulk Density Correction, Bottom
TNPH            .V/V                                       :(RM)    (DV6MT)                 (6in)                   Thermal Neutron Porosity (Ratio Method) in Selected Lithology
TNPB_UNC        .ft3/ft3                                   :(RM)    (DV6MT)                 (6in)                   Uncorrected Thermal Neutron Porosity, Bottom (only hole size correction applied)
NER1            .1/s                                       :(RM)    (DV6MT)                 (6in)                   Neutron Near Tube 1 Average Count Rate
FAR1            .1/s                                       :(RM)    (DV6MT)                 (6in)                   Neutron Far Tube 1 Average Count Rate
PEB             .                                          :(RM)    (DV6MT)                 (6in)                   Photoelectric Factor, Bottom
RPM             .c/min                                     :(RT)    (DRILLING_SURFACE)      (6in)                   Rotational Speed
ECD             .lbm/gal                                   :(RM)    (DV6MT)                 (6in)                   Equivalent Circulating Density
DHAP            .psi                                       :(RM)    (DV6MT)                 (6in)                   Downhole Annulus Pressure
DHAT            .degC                                      :(RM)    (DV6MT)                 (6in)                   Downhole Annulus Temperature
UCAV            .in                                        :(RM)    (DV6MT)                 (6in)                   Ultrasonic Caliper Average
#-------------------------------------------------------------
#            DEPT        DEPTH         TVDE         ROP5      TAB_RES           GR           GR         P16H         P22H         P28H         P34H         P40H         ROBB         DRHB         TNPH     TNPB_UNC         NER1         FAR1          PEB          RPM          ECD         DHAP         DHAT         UCAV 
#                  (DnMWorkfl)  (DnMWorkfl)  (DRILLING_)      (DV6MT)   (PDX5_675)      (DV6MT)      (DV6MT)      (DV6MT)      (DV6MT)      (DV6MT)      (DV6MT)      (DV6MT)      (DV6MT)      (DV6MT)      (DV6MT)      (DV6MT)      (DV6MT)      (DV6MT)  (DRILLING_)      (DV6MT)      (DV6MT)      (DV6MT)      (DV6MT) 
#                         (RT)         (RT)         (RT)                      (RT)         (RM)         (RM)         (RM)         (RM)         (RM)         (RM)         (RM)         (RM)         (RM)         (RM)         (RM)         (RM)         (RM)         (RT)         (RM)         (RM)         (RM)         (RM) 
#                        (1in)        (6in)        (6in)        (6in)        (6in)        (6in)        (6in)        (6in)        (6in)        (6in)        (6in)        (6in)        (6in)        (6in)        (6in)        (6in)        (6in)        (6in)        (6in)        (6in)        (6in)        (6in)        (6in) 
~ASCII
# ...
       3465.20000   3465.19629   2705.41825     21.26512      0.81390     38.41295     30.26583     46.19528     46.77591     47.16485     47.30491     47.30065      2.33748      0.02858      0.14432      0.13413   4028.76500    104.68360      2.27607    140.00000     10.87243   5007.00003    106.00000      8.66886
       3465.40000   3465.39990   2705.48252     21.27317      1.42197      -999.25     29.06721     46.45650     46.93199     47.22727     47.29064     47.23218      2.34560      0.02900      0.14675      0.13768   4010.76100     99.79908      2.40167    138.00000     10.87380   5004.00065    106.00000      8.66600
       3465.60000   3465.60254   2705.54679     21.22442      1.42490     35.21332     30.19208     47.05441     47.25301     47.40002     47.44152     47.40373      2.35450      0.03028      0.15334      0.12282   4003.03600    100.95990      2.50888    139.00000     10.86961   5008.00079    106.00000      8.66443
       3465.80000   3465.80518   2705.61108     21.08770      1.42822      -999.25     29.56199     46.90603     47.14096     47.45354     47.65543     47.65742      2.34637      0.02014      0.14668      0.13326   4093.90500    104.53620      2.57321    139.00000     10.86913   5011.99948    106.00000      8.66825
       3466.00000   3466.00830   2705.67537     20.65416      1.43184      -999.25     28.18227     46.71244     46.97258     47.29579     47.45787     47.38760      2.32788      0.01071      0.13851      0.13741   4076.87600    108.83850      2.31180    140.00000     10.87082   5011.00017    106.00000      8.66654
       3466.20000   3466.20947   2705.73967     20.55273      1.43238     45.22955     29.04013     46.52837     46.96139     47.23644     47.36728     47.43485      2.32888      0.01503      0.13609      0.12862   4098.59200    113.03750      2.19682    142.00000     10.87044   5004.00065    106.00000      8.67049
       3466.40000   3466.38745   2705.80397     20.41225      1.43322      -999.25     28.75372     46.75054     46.93048     47.14033     47.26894     47.27222      2.33772      0.02336      0.14931      0.12734   4103.55800    105.91660      2.15248    141.00000     10.86643   5007.00003    106.00000      8.66910
       3466.60000   3466.59155   2705.86828     20.54168      1.43517      -999.25     29.25349     46.22132     46.31436     46.61752     46.90448     46.98059      2.33793      0.03485      0.13444      0.12577   4033.25100    105.23580      2.21885    139.00000     10.86436   4998.00044    106.00000      8.66899
       3466.80000   3466.79395   2705.93260     20.48351      1.43614     36.79575     29.08139     45.92509     46.22987     46.34106     46.54607     46.93402      2.32777      0.03136      0.14051      0.14166   4085.78000    106.28190      2.22912    139.00000     10.86396   5002.99989    106.00000      8.67130
       3467.00000   3466.99731   2705.99692     20.46909      1.43669      -999.25     28.46431     44.63352     45.14026     45.55673     45.90027     46.16846      2.33044      0.02741      0.14474      0.13987   4079.31200    106.96310      2.20097    140.00000     10.86835   5015.00032    106.00000      8.66910
       3467.20000   3467.20142   2706.06125     20.60932      1.43807      -999.25     28.41257     42.40550     43.39530     44.01501     44.60986     45.34100      2.34072      0.03047      0.13818      0.12579   4074.80600    108.14930      2.22541    141.00000     10.86143   5006.00072    106.00000      8.66492
       3467.40000   3467.40601   2706.12559     20.75805      1.43946     35.21332     29.09777     41.81736     42.78383     43.46374     44.06623     44.69107      2.34392      0.03114      0.13794      0.13323   4013.82200    107.33490      2.24014    142.00000     10.86003   5007.00003    106.00000      8.66816
       3467.60000   3467.60840   2706.18994     20.99834      1.44072      -999.25     29.08027     41.58109     42.29092     42.99480     43.68907     44.25603      2.34291      0.03145      0.13874      0.13887   4012.63600    104.83620      2.26049    141.00000     10.86341   5002.99989    106.00000      8.66869
       3467.80000   3467.81079   2706.25429     21.28737      1.44268      -999.25     28.01644     40.63168     41.50344     42.35686     43.18177     43.84969      2.34250      0.03340      0.14823      0.13430   4091.82200    105.82150      2.28193    140.00000     10.86018   5000.00051    106.00000      8.66397
       3468.00000   3467.98999   2706.31864     21.37790      1.44392     35.21332     28.70517     40.38071     41.05564     42.01167     42.92931     43.44026      2.34471      0.03193      0.14054      0.12581   4066.29700    108.36470      2.28297    141.00000     10.86309   5008.00079    106.00000      8.66502
       3468.20000   3468.19312   2706.38301     21.53951      1.44475      -999.25     29.07756     40.19210     40.89717     41.79045     42.62235     43.10824      2.34225      0.02610      0.14358      0.12619   4089.15700    104.71240      2.29184    142.00000     10.85145   4986.00002    105.00000      8.66397
       3468.40000   3468.39600   2706.44738     21.52211      1.44642      -999.25     29.64955     39.90606     40.54633     41.28194     41.99945     42.50409      2.33600      0.01586      0.13908      0.12979   4056.85700    108.48850      2.26499    142.00000     10.81231   4989.00085    105.00000      8.66344
       3468.60000   3468.59839   2706.51175     21.55275      1.44781     45.22955     29.79062     39.60175     40.40107     41.19297     41.86648     42.30760      2.33553      0.01496      0.13935      0.13632   4047.97900    107.92180      2.26633    138.00000     10.81337   4990.00016    105.00000      8.66672
       3468.80000   3468.80078   2706.57614     21.56895      1.44781     38.41295     29.80210     39.28520     40.15786     41.01116     41.77253     42.32378      2.34455      0.02192      0.13876      0.13332   4073.39300    107.86550      2.29862    139.00000     10.80742   4979.99981    105.00000      8.66816
       3469.00000   3469.00537   2706.64053     21.56554      1.44878      -999.25     30.56579     38.95769     39.79446     40.60309     41.43399     42.16909      2.34656      0.02277      0.14243      0.12872   4057.69200    107.52980      2.28221    139.00000     10.81314   4989.00085    105.00000      8.66973
       3469.20000   3469.20825   2706.70492     21.59761      1.45154      -999.25     33.82257     38.59145     39.65160     40.62798     41.50247     42.18982      2.36691      0.02728      0.14047      0.12738   4112.36500    108.86750      2.36202    139.00000     10.81460   4984.99926    105.00000      8.66816
       3469.40000   3469.41260   2706.76933     21.57824      1.45182      -999.25     32.71039     38.38009     39.66137     40.64310     41.47504     42.24432      2.37670      0.02818      0.13626      0.12581   4087.04500    107.08980      2.37394    139.00000     10.81039   4982.99919    105.00000      8.66344
       3469.60000   3469.59058   2706.83374     21.57086      1.45182      -999.25     32.24607     38.51152     39.78807     40.73861     41.51458     42.22971      2.36811      0.01939      0.14176      0.14185   4135.82800    105.79920      2.30642    140.00000     10.80642   4979.99981    105.00000      8.66554
       3469.80000   3469.79077   2706.89815     21.70066      1.45322     45.22955     33.39341     38.82406     40.04383     41.10018     41.99292     42.69405      2.37060      0.02107      0.13060      0.11270   4124.87500    109.60900      2.32944    139.00000     10.81299   4971.00022    105.00000      8.66947
       3470.00000   3469.99536   2706.96258     21.66896      1.45392     35.21332     32.36307     39.31936     40.45306     41.44474     42.28373     42.93212      2.37167      0.02425      0.13280      0.12596   4109.15300    108.04720      2.35683    138.00000     10.81452   4986.00002    105.00000      8.67026
       3470.20000   3470.19775   2707.02701     21.37669      1.45434      -999.25     30.96837     39.58004     40.67451     41.69015     42.57062     43.22352      2.37259      0.02419      0.13677      0.12595   4076.62100    108.03870      2.34069    141.00000     10.81653   4983.99995    105.00000      8.67314
