~VERSION INFORMATION 
VERS  .    2.0                                     :CWLS Log ASCII Standard - VERSION 2.0
WRAP  .    NO                                      :One Line per Depth step
PROD  .    YY.           :LAS Producer
PROG  .    Horizon LASWriter 4.0.9163.3000         :LAS Program name and version
SOURCE.    Run 2-Drilling                          :Run&Pass Information
CREA  .    06/28/2014                              :LAS Creation date {MM/DD/YYYY}
#--------------------------------------------------
~WELL INFORMATION 
#MNEM           .UNIT                      DATA            :DESCRIPTION
#----            ------          --------------            -----------------------------
STRT            .m                   3200.00000            :START DEPTH
STOP            .m                   3716.80000            :STOP DEPTH
STEP            .m                          0.2            :STEP
NULL            .                       -999.25            :NULL VALUE
COMP            .               XX.:COMPANY
WELL            .                     TBG-B3ST2            :WELL NAME
FLD             .                      Tembungo            :FIELD NAME
RIGN            .                Aquamarine Driller        :Rig Name
RIGTYP          .                       Jack-up            :Rig Type
SON             .                     14MDD0152            :Service Order Number
SRVC            .                  YY            :SERVICE COMPANY
DATE            .                    06/24/2014            :LOG DATE(Composite Date for Composite LAP) (MM/DD/YYYY)
CLAB            .                       County:            :County Label
CNTY            .                                          :COUNTY
SLAB            .                        State:            :State/Province Label
STAT            .                         Sabah            :STATE or PROVINCE
PROV            .                         Sabah            :STATE or PROVINCE
CTRY            .                      Malaysia            :COUNTRY
CONT_REGION     .                          Asia            :Continent Region
SECT            .                                          :Section
TOWN            .                                          :Township
RANG            .                                          :Range
API             .                                          :API NUMBER
UWI             .                     14MDD0152            :UNIQUE WELL ID
LUL             .                Port Side, Main Deck      :Logging Unit Location
LUN             .                   OLU-MA-5062            :Logging Unit Number
LOC             .                Offshore Sabah            :FIELD LOCATION
FL1             .                N 730338.480 m            :Field Location Line 1
FL2             .                E 363301.236 m            :Field Location Line 2
LATI            .deg                  6.6062675            :LATITUDE
LONG            .deg                  115.76330            :LONGITUDE
PDAT            .                           MSL            :Local Permanent Datum
LMF             .                            DF            :Logging Measured From
APD             .m                        37.55            :Elevation of Depth Reference (LMF) Above Permanent Datum
EPD             .m                         0.00            :Elevation of Permanent Datum (PDAT) above Mean Sea Level
EKB             .m                      -999.25            :Elevation of Kelly Bushing Above Permanent Datum
EDF             .m                        37.55            :Elevation of Drill Floor Above Permanent Datum
EGL             .m                       -86.26            :Elevation of Ground Level Above Permanent Datum
ECF             .m                      -999.25            :Elevation of Casing Flange above Permanent Datum
#--------------------------------------------------
~CURVE INFORMATION
#MNEM           .UNIT                  API CODE            :DESCRIPTION
#----            ------          --------------            -----------------------------
DEPT            .m                                         :                                                        Depth Index
DEPTH           .m                                         :(RT)    (DnMWorkflow)           (1in)                   Depth Index
TVDE            .m                                         :(RT)    (DnMWorkflow)           (6in)                   True Vertical Depth
ROP5            .m/h                                       :(RT)    (DRILLING_SURFACE)      (6in)                   Rate of penetration averaged over the last 5 ft (1.5 m)
TAB_RES         .h                                         :        (DV6MT)                 (6in)                   Resistivity Time After Bit
GR              .gAPI                                      :(RT)    (PDX5_675)              (6in)                   Gamma Ray
GR              .gAPI                                      :(RM)    (DV6MT)                 (6in)                   Gamma Ray
P16H            .ohm.m                                     :(RM)    (DV6MT)                 (6in)                   Phase Shift Resistivity 16 inch Spacing at 2 MHz, Environmentally Corrected.
P22H            .ohm.m                                     :(RM)    (DV6MT)                 (6in)                   Phase Shift Resistivity 22 inch Spacing at 2 MHz, Environmentally Corrected.
P28H            .ohm.m                                     :(RM)    (DV6MT)                 (6in)                   Phase Shift Resistivity 28 inch Spacing at 2 MHz, Environmentally Corrected.
P34H            .ohm.m                                     :(RM)    (DV6MT)                 (6in)                   Phase Shift Resistivity 34 inch Spacing at 2 MHz, Environmentally Corrected.
P40H            .ohm.m                                     :(RM)    (DV6MT)                 (6in)                   Phase Shift Resistivity 40 inch Spacing at 2 MHz, Environmentally Corrected.
ROBB            .g/cm3                                     :(RM)    (DV6MT)                 (6in)                   Bulk Density, Bottom
DRHB            .g/cm3                                     :(RM)    (DV6MT)                 (6in)                   Bulk Density Correction, Bottom
TNPH            .V/V                                       :(RM)    (DV6MT)                 (6in)                   Thermal Neutron Porosity (Ratio Method) in Selected Lithology
TNPB_UNC        .ft3/ft3                                   :(RM)    (DV6MT)                 (6in)                   Uncorrected Thermal Neutron Porosity, Bottom (only hole size correction applied)
NER1            .1/s                                       :(RM)    (DV6MT)                 (6in)                   Neutron Near Tube 1 Average Count Rate
FAR1            .1/s                                       :(RM)    (DV6MT)                 (6in)                   Neutron Far Tube 1 Average Count Rate
PEB             .                                          :(RM)    (DV6MT)                 (6in)                   Photoelectric Factor, Bottom
RPM             .c/min                                     :(RT)    (DRILLING_SURFACE)      (6in)                   Rotational Speed
ECD             .lbm/gal                                   :(RM)    (DV6MT)                 (6in)                   Equivalent Circulating Density
DHAP            .psi                                       :(RM)    (DV6MT)                 (6in)                   Downhole Annulus Pressure
DHAT            .degC                                      :(RM)    (DV6MT)                 (6in)                   Downhole Annulus Temperature
UCAV            .in                                        :(RM)    (DV6MT)                 (6in)                   Ultrasonic Caliper Average
#-------------------------------------------------------------
#            DEPT        DEPTH         TVDE         ROP5      TAB_RES           GR           GR         P16H         P22H         P28H         P34H         P40H         ROBB         DRHB         TNPH     TNPB_UNC         NER1         FAR1          PEB          RPM          ECD         DHAP         DHAT         UCAV 
#                  (DnMWorkfl)  (DnMWorkfl)  (DRILLING_)      (DV6MT)   (PDX5_675)      (DV6MT)      (DV6MT)      (DV6MT)      (DV6MT)      (DV6MT)      (DV6MT)      (DV6MT)      (DV6MT)      (DV6MT)      (DV6MT)      (DV6MT)      (DV6MT)      (DV6MT)  (DRILLING_)      (DV6MT)      (DV6MT)      (DV6MT)      (DV6MT) 
#                         (RT)         (RT)         (RT)                      (RT)         (RM)         (RM)         (RM)         (RM)         (RM)         (RM)         (RM)         (RM)         (RM)         (RM)         (RM)         (RM)         (RM)         (RT)         (RM)         (RM)         (RM)         (RM) 
#                        (1in)        (6in)        (6in)        (6in)        (6in)        (6in)        (6in)        (6in)        (6in)        (6in)        (6in)        (6in)        (6in)        (6in)        (6in)        (6in)        (6in)        (6in)        (6in)        (6in)        (6in)        (6in)        (6in) 
~ASCII
# ...
       3668.00000   3667.98755   2761.22375     20.13227      1.47696     56.49781     48.99892     16.75750     18.91841     20.98601     22.80877     24.47054      2.34209      0.01448      0.13942      0.13213   4200.30900    108.84050      2.29723    139.00000     10.94613   5147.00061    110.00000      8.70894
       3668.20000   3668.19189   2761.27200     20.20584      1.47823     50.70718     51.18641     16.89083     19.01012     20.92848     22.66131     24.42143      2.34412      0.01749      0.14320      0.12290   4212.58300    106.89440      2.23783    140.00000     10.89553   5124.00053    109.00000      8.70519
       3668.40000   3668.39551   2761.32024     20.19050      1.47947      -999.25     51.28532     17.01939     18.97051     20.92346     22.68420     24.19786      2.34624      0.02359      0.14221      0.14312   4217.45400    107.06930      2.27515    139.00000     10.89544   5126.00060    109.00000      8.70292
       3668.60000   3668.59863   2761.36848     20.18422      1.48003     50.70718     48.91330     17.14307     19.08447     21.06672     22.90509     24.49291      2.34749      0.02500      0.14238      0.12885   4170.37700    107.05420      2.29949    142.00000     10.89514   5128.00067    109.00000      8.69122
       3668.80000   3668.80176   2761.41672     20.22542      1.48003      -999.25     47.90631     17.02094     19.14687     21.08057     22.92710     24.90084      2.34790      0.02680      0.14073      0.12619   4199.44900    108.42550      2.33993    137.00000     10.81668   5063.99986    109.00000      8.69820
       3669.00000   3669.00537   2761.46495     20.46932      1.47975     52.60262     48.41839     16.81595     18.92349     20.91682     22.72077     24.44935      2.34288      0.01711      0.15068      0.13026   4208.40400    102.26780      2.26820    140.00000     10.72759   5084.00057    109.00000      8.70493
       3669.20000   3669.20825   2761.51318     20.49035      1.47975      -999.25     48.65109     16.97958     19.07896     20.95786     22.67815     24.47162      2.34495      0.01877      0.14286      0.13040   4164.65800    105.02510      2.25778    139.00000     10.73869   5076.99960    109.00000      8.70187
       3669.40000   3669.40942   2761.56140     20.27248      1.47905     56.49781     47.57335     16.88029     19.03340     20.93960     22.66334     24.47676      2.36124      0.02962      0.13688      0.12343   4155.50500    108.08540      2.27228    142.00000     10.76243   5107.00065    109.00000      8.70264
       3669.60000   3669.58936   2761.60962     20.29745      1.47891     50.70718     47.28531     17.05276     19.09700     21.10473     22.99379     24.77030      2.37109      0.04143      0.14828      0.15588   4172.52300    105.20540      2.29543    143.00000     10.89919   5126.00060    109.00000      8.69454
       3669.80000   3669.79224   2761.65784     20.34387      1.47904      -999.25     46.75005     17.10208     19.22065     21.18977     23.05211     24.95416      2.36789      0.04361      0.14836      0.15107   4174.39400    103.29900      2.32566    140.00000     10.90098   5124.99984    109.00000      8.70083
       3670.00000   3669.99609   2761.70605     20.35646      1.47961     52.60262     45.35416     17.12833     19.30465     21.34631     23.14486     24.79457      2.36433      0.04208      0.15302      0.15310   4186.72300    104.23710      2.30462    139.00000     10.90253   5131.00005    109.00000      8.70048
       3670.20000   3670.19922   2761.75425     20.30420      1.48058     52.60262     47.13463     17.42355     19.65952     21.63204     23.37885     25.12311      2.35503      0.02856      0.13968      0.13791   4131.03900    104.92130      2.25296    138.00000     10.90356   5128.99998    109.00000      8.70045
       3670.40000   3670.40283   2761.80246     20.30296      1.48071     58.49759     48.35075     17.49020     19.68747     21.72199     23.43768     24.90875      2.35846      0.02959      0.15021      0.15276   4171.79400    103.80440      2.27632    140.00000     10.90799   5133.99943    109.00000      8.69960
       3670.60000   3670.60449   2761.85066     20.25973      1.48100      -999.25     49.47444     17.78946     19.92682     21.98571     23.77852     25.25298      2.36778      0.03698      0.14439      0.14096   4154.31900    103.07720      2.32177    140.00000     10.91575   5131.00005    109.00000      8.69541
       3670.80000   3670.80884   2761.89885     20.48528      1.48210      -999.25     49.27320     18.13951     20.43822     22.50004     24.18538     25.62964      2.38887      0.05448      0.14650      0.14175   4170.96600    102.99840      2.43030    143.00000     10.91758   5133.00012    109.00000      8.70432
       3671.00000   3671.01270   2761.94704     20.54114      1.48251     50.70718     48.54442     18.27449     20.59917     22.71948     24.37751     25.66249      2.38059      0.04918      0.14668      0.15577   4186.27100    101.95310      2.40869    138.00000     10.91895   5131.00005    109.00000      8.70152
       3671.20000   3671.18921   2761.99523     20.43176      1.48266     58.49759     49.02982     18.73523     20.97791     22.95746     24.50292     25.77158      2.36960      0.03880      0.14236      0.12996   4197.91100    106.69410      2.38832    141.00000     10.91493   5135.99950    109.00000      8.70240
       3671.40000   3671.39160   2762.04341     20.41474      1.48254     60.53213     49.79688     19.02194     21.22463     23.31059     24.92691     26.05618      2.37666      0.04246      0.13623      0.13609   4210.09900    110.36320      2.43654    140.00000     10.91624   5133.99943    109.00000      8.70677
       3671.60000   3671.59399   2762.09158     20.35409      1.48223      -999.25     50.85786     19.27904     21.43957     23.42382     25.01110     26.26139      2.37507      0.04597      0.14086      0.14173   4221.42200    108.75340      2.42642    138.00000     10.91503   5130.00074    109.00000      8.70554
       3671.80000   3671.79785   2762.13976     20.35966      1.48224     56.49781     50.05186     19.23382     21.53575     23.47111     24.89142     26.07459      2.36879      0.04754      0.14673      0.13542   4212.73600    103.50210      2.39130    139.00000     10.92187   5143.00047    109.00000      8.71585
       3672.00000   3672.00146   2762.18793     20.28487      1.48171     56.49781     50.43242     19.22902     21.47257     23.39896     24.84630     26.03440      2.36954      0.05030      0.14505      0.14157   4236.86700    107.08910      2.37666    142.00000     10.91722   5131.99936    109.00000      8.72581
       3672.20000   3672.20508   2762.23609     20.01472      1.48044     60.53213     50.88767     19.33956     21.50012     23.28808     24.58216     25.65646      2.37847      0.05034      0.14446      0.13074   4229.21400    103.78850      2.40344    141.00000     10.91596   5137.99957    109.00000      8.73489
       3672.40000   3672.40894   2762.28425     19.62950      1.47892      -999.25     49.84582     19.44402     21.48793     23.29093     24.66952     25.74983      2.38863      0.05988      0.14388      0.13619   4231.90700    103.22020      2.44328    141.00000     10.91465   5124.99984    109.00000      8.72756
       3672.60000   3672.61206   2762.33241     19.28455      1.47751     52.60262     49.52194     19.41977     21.45375     23.23807     24.63946     25.79620      2.38710      0.06961      0.14234      0.14377   4226.97800    105.89250      2.51573    139.00000     10.91872   5137.00026    109.00000      8.72913
       3672.80000   3672.78979   2762.38056     18.85694      1.47531      -999.25     52.22593     19.21687     21.30932     23.06706     24.34719     25.37643      2.36360      0.04674      0.14522      0.14689   4244.57900    104.85100      2.44996    140.00000     10.91751   5135.00019    109.00000      8.75201
       3673.00000   3672.99146   2762.42871     18.66328      1.47446     58.49759     52.13741     19.12639     21.18650     22.91071     24.16409     25.17166      2.35356      0.02953      0.14753      0.14710   4191.53400    105.56070      2.41177    137.00000     10.91493   5131.00005    109.00000      8.75114
